stop_id,stop_name,stop_lat,stop_lon,location_type,zone_id
1,"Bovezzo, Rota 15, Capolinea",45.59255107,10.24266203,0,Z2
10,"Brescia, Ottava, Vill.Prealpino",45.5850168,10.23442155,0,Z1
100,"Brescia, Cremona",45.52459376,10.22314479,0,Z1
1000,"Brescia, Verrocchio Metro",45.51847901,10.25892071,0,Z1
1001,"Brescia, Lippi",45.51457998,10.25512848,0,Z1
1003,"Flero, Don Maestrini",45.46835737,10.174964,0,Z2
1004,"Brescia, Volturno fr.36",45.54707428,10.21078044,0,Z1
1005,"Brescia, L.Da Vinci",45.5461916,10.21495395,0,Z1
1006,"Brescia, Salgari fr.41",45.52611862,10.19989177,0,Z1
1007,"Brescia, Livorno 54",45.52556572,10.17976363,0,Z1
1009,"Brescia, Fura fr.64",45.52671577,10.18909991,0,Z1
101,"Brescia, Della Volta 6/e",45.51852112,10.22473777,0,Z1
1010,"Brescia, Fura 53",45.52604913,10.19268055,0,Z1
1011,"Brescia, Fura fr.38",45.52537971,10.1957195,0,Z1
1014,"Brescia, L.Da Vinci 10",45.54554655,10.2195501,0,Z1
1015,"Brescia, S.Eufemia 32",45.52261352,10.26772854,0,Z1
1016,"Brescia, S.Eufemia 54, Metro",45.52043266,10.27475209,0,Z1
1017,"Brescia, S.Eufemia 106",45.51942754,10.28125367,0,Z1
1018,"Brescia, S.Eufemia 108",45.51770815,10.28779819,0,Z1
1019,"Rezzato, Mazzini",45.51523048,10.29842605,0,Z2
102,"Brescia, Della Volta 38-40",45.51564932,10.22471427,0,Z1
1020,"Rezzato, Almici 75",45.51868061,10.30560666,0,Z2
1021,"Rezzato, Scalabrini 35",45.51606027,10.31266304,0,Z2
1022,"Rezzato, Broli 20",45.51448344,10.31445954,0,Z2
1024,"Rezzato, L.Da Vinci, PP.TT.",45.51238631,10.32315131,0,Z2
1025,"Rezzato, Giovanni XXIII",45.51165823,10.30009834,0,Z2
1026,"Rezzato, Giovanni XXIII",45.50870824,10.30315948,0,Z2
1027,"Rezzato, Giovanni XXIII, Ex Pama",45.5071916,10.30630396,0,Z2
1028,"Rezzato, Matteotti fr.74",45.50588886,10.31166513,0,Z2
1029,"Rezzato, Matteotti 135",45.50806945,10.312004,0,Z2
103,"Brescia, Della Volta fr.97",45.51225765,10.22566987,0,Z1
1030,"Rezzato, L.Da Vinci 78",45.51260302,10.32785966,0,Z2
1032,"Rezzato, Virle, Capolinea",45.51457255,10.33302359,0,Z2
1034,"Rezzato, L.Da Vinci",45.51267525,10.328143,0,Z2
1035,"Rezzato, L.Da Vinci, PP.TT.",45.51246686,10.32295686,0,Z2
1036,"Rezzato, Leonardo Da Vinci fr.4, Scuole",45.51333623,10.31579011,0,Z2
1037,"Rezzato, IV Novembre 124, CTM",45.51208701,10.31363302,0,Z2
1038,"Rezzato, Mazzini",45.51325001,10.30716783,0,Z2
1039,"Rezzato, Giovanni XXIII",45.50773326,10.30541786,0,Z2
104,"Brescia, Della Volta fr.179",45.50979993,10.22504023,0,Z1
1040,"Rezzato, S.Eufemia, SS11 Continente",45.51559434,10.29715938,0,Z2
1041,"Brescia, S.Eufemia, Italmark",45.51791649,10.28738151,0,Z1
1042,"Brescia, S.Eufemia 72",45.51964976,10.28082034,0,Z1
1043,"Brescia, S.Eufemia fr.54, Metro",45.5205469,10.27465915,0,Z1
1044,"Brescia, S.Eufemia 15",45.52263019,10.26792576,0,Z1
1045,"Brescia, Cefalonia, Carnevali",45.52499654,10.21767527,0,Z1
1046,"Brescia, Cefalonia, Parco Gallo",45.52770754,10.20639459,0,Z1
1047,"Caino, Nazionale 65",45.61330454,10.32178547,0,Z2
1048,"Caino, Trieste 3",45.61304614,10.31680487,0,Z2
1049,"Caino, Trento/Villa Sera",45.61016968,10.31415474,0,Z2
105,"S.Z.Naviglio, Della Volta fr.201",45.50297898,10.22198708,0,Z1
1050,"Caino, Nazionale SP237/S.Rocco",45.60735709,10.31073554,0,Z2
1051,"Caino, SS237 Del Caffaro, Ferriera",45.60330976,10.30863006,0,Z2
1052,"Nave, Trento fr.148, Valle",45.59880134,10.30856628,0,Z2
1053,"Nave, Trento 213, Mitria",45.59079283,10.3070609,0,Z2
1054,"Nave, Trento 45, S.Rocco",45.58705096,10.29476645,0,Z2
1055,"Nave, Brescia fr.43",45.58592027,10.28734694,0,Z2
1056,"Nave, Brescia 108",45.5850516,10.28158674,0,Z2
1058,"Nave, Brescia fr.185",45.58390062,10.271858,0,Z2
1059,"Nave, Zanardelli, Villa Zanardelli",45.58542,10.2634412,0,Z2
106,"S.Z.Naviglio, Volta, Agricar",45.4997243,10.22260322,0,Z2
1060,"Nave, Zanardelli 73, Cimitero",45.58739497,10.25852165,0,Z2
1063,"Bovezzo, Verdi fr.32",45.58491515,10.24261659,0,Z2
1066,"Brescia, Tartaglia 53, Canton D'Albera",45.5459354,10.21291939,0,Z1
1068,"Brescia, Orzinuovi 8, Pietra",45.52772138,10.19481113,0,Z1
1069,"Brescia, Orzinuovi 46/a",45.52937134,10.18904707,0,Z1
107,"S.Z.Naviglio, Volta, Cavalcavia Est",45.49834376,10.22729217,0,Z2
1072,"Brescia, Orzinuovi 58, Chiesanuova",45.53001299,10.18685533,0,Z1
1073,"Brescia, Orzinuovi 76",45.53141018,10.18170518,0,Z1
1074,"Brescia, Orzinuovi, fr.Ortomercato",45.53161291,10.17371054,0,Z1
1075,"Brescia, Orzinuovi, Ortomercato",45.53188236,10.17334663,0,Z1
1076,"Roncadelle, V.Emanuele II 39",45.5298981,10.16549436,0,Z2
1077,"Roncadelle, Marconi 37",45.52774338,10.15861589,0,Z2
1078,"Roncadelle, Marconi, Cimitero",45.5292317,10.15239165,0,Z2
1079,"Roncadelle, Roma 15",45.52676556,10.14905181,0,Z2
1084,"Roncadelle, Capolinea",45.52122385,10.1432574,0,Z2
1085,"Roncadelle, Berlinguer",45.52430717,10.14210171,0,Z2
1086,"Roncadelle, Berlinguer 5",45.52813218,10.14299885,0,Z2
1087,"Roncadelle, Fermi fr.41",45.53247111,10.14619602,0,Z2
1088,"Roncadelle, Marconi, fr.Cimitero",45.52919229,10.15237671,0,Z2
1089,"Roncadelle, Marconi 90",45.52763227,10.15881867,0,Z2
109,"Borgosatollo, Brescia 41, Piffione",45.49163911,10.23732375,0,Z2
1090,"Roncadelle, Vittorio Emanuele II",45.52992399,10.16561873,0,Z2
1092,"Brescia, Orzinuovi, Zucchini",45.53100024,10.18195938,0,Z1
1096,"Brescia, Conicchio 34",45.57945286,10.23589668,0,Z1
1098,"Bovezzo, Verdi 38",45.58483918,10.24289659,0,Z2
11,"Brescia, Tovini 21-23, Vill.Prealpino",45.58269452,10.23319104,0,Z1
110,"Borgosatollo, IV Novembre 275",45.48825983,10.23829202,0,Z2
1101,"Nave, Brescia, Muratello",45.58408735,10.27557843,0,Z2
1102,"Nave, Brescia 117",45.58501865,10.28177384,0,Z2
1104,"Nave, Brescia 37",45.58582584,10.28709698,0,Z2
1105,"Nave, Trento fr.45, S.Rocco",45.58691762,10.29456922,0,Z2
1106,"Nave, Trento 62, Mitria",45.58990539,10.30586308,0,Z2
1107,"Nave, Trento 148, Valle",45.59979578,10.30791346,0,Z2
1108,"Caino, SS237 Del Caffaro",45.60328476,10.30877451,0,Z2
1109,"Caino, Nazionale SP237",45.60757098,10.31095496,0,Z2
111,"Borgosatollo, IV Novembre 223",45.48604656,10.23875345,0,Z2
1110,"Caino, Villa Sera/Trento fr.29",45.60960438,10.31399661,0,Z2
1111,"Caino, Trento fr.19",45.61271835,10.31673265,0,Z2
1117,"Concesio, Capolinea",45.6072722,10.21624299,0,Z2
112,"Borgosatollo, IV Novembre fr.172",45.48387156,10.23870067,0,Z2
1120,"Concesio, Kennedy fr.41",45.59911694,10.22827395,0,Z2
1121,"Concesio, Delle Camerate 44",45.59677802,10.22988514,0,Z2
1122,"Concesio, Delle Camerate 109",45.59331057,10.2285285,0,Z2
1123,"Brescia, Flero, fr.Carcere",45.50029078,10.18652508,0,Z1
1124,"Flero, Brescia fr.50",45.49347406,10.18157508,0,Z2
1125,"Flero, Brescia 19",45.48998516,10.17692227,0,Z2
1126,"Flero, Umberto I 52",45.48721014,10.17455835,0,Z2
1127,"Flero, Vittorio Emanuele II, Municipio",45.48362403,10.17494172,0,Z2
1128,"Flero, D.Maestrini",45.4823754,10.17883751,0,Z2
1129,"Flero, Don Maestrini fr.51",45.47824629,10.17806122,0,Z2
113,"Borgosatollo, IV Novembre 149",45.48065491,10.23967571,0,Z2
1130,"Poncarale, Fiume 7",45.46382696,10.17399918,0,Z2
1132,"Poncarale, Roma 8-10",45.46081851,10.17586128,0,Z2
1133,"Poncarale, Roma 43, fr.Cimitero",45.46095742,10.17975576,0,Z2
1134,"Poncarale, Sorelle Girelli 67",45.46064356,10.18356972,0,Z2
1135,"Poncarale, Sorelle Girelli fr.15",45.45931873,10.18769791,0,Z2
1137,"Poncarale, Capolinea",45.45914916,10.19170868,0,Z2
114,"Borgosatollo, IV Novembre 57",45.47789103,10.24005073,0,Z2
1140,"Poncarale, Sorelle Girelli fr.77",45.45942929,10.18738407,0,Z2
1141,"Poncarale, Girelli fr.17",45.46089357,10.18286693,0,Z2
1142,"Poncarale, Roma fr.37, Cimitero",45.46104353,10.17899186,0,Z2
1143,"Poncarale, Roma 15, Scuole",45.46091571,10.17553908,0,Z2
1144,"Poncarale, Fiume 32",45.46430754,10.17413452,0,Z2
1145,"Flero, Fiume 60",45.46819838,10.17500298,0,Z2
1146,"Flero, Don Maestrini 99",45.47190738,10.17691681,0,Z2
1147,"Flero, Don Maestrini 42",45.47779628,10.17813067,0,Z2
1148,"Flero, Capolinea",45.48345184,10.17927787,0,Z2
1149,"Flero, XXV Aprile fr.165",45.49323382,10.18254802,0,Z2
115,"Borgosatollo, Santissima 78",45.47247435,10.24147578,0,Z2
1150,"Brescia, Flero, Carcere",45.50097133,10.18713898,0,Z1
1153,"Concesio, Delle Camerate 100",45.59326407,10.22857967,0,Z2
1154,"Concesio, Delle Camerate 57",45.59686969,10.22998235,0,Z2
1155,"Concesio, Kennedy 41",45.59925027,10.2282684,0,Z2
1156,"Concesio, Kennedy 5",45.60141691,10.22540442,0,Z2
1157,"Concesio, Montini 26/a",45.60753347,10.21290978,0,Z2
116,"Borgosatollo, Santissima 120",45.47060938,10.24190745,0,Z2
1161,"Gussago, Bazzani, Capolinea",45.59281047,10.1546953,0,Z2
1164,"Gussago, Caporalino 46",45.58325485,10.15945939,0,Z2
1165,"Cellatica, Caporalino fr.34",45.58244933,10.16508453,0,Z2
1166,"Cellatica, Caporalino, Edicola",45.58301046,10.16985963,0,Z2
1167,"Cellatica, Risorgimento 14",45.58316329,10.17548476,0,Z2
1168,"Cellatica, Bertulli 12",45.58293552,10.17914873,0,Z2
1169,"Cellatica, Attico, Cimitero",45.57966048,10.17904599,0,Z2
117,"Borgosatollo, Santissima 144",45.46900811,10.24207702,0,Z2
1170,"Cellatica, Fantasina 8",45.57480135,10.17929379,0,Z2
1171,"Cellatica, Fantasina 74",45.57013365,10.1797879,0,Z2
1172,"Brescia, Torricella Di Sopra fr.Suore",45.56429373,10.18351851,0,Z1
1175,"Brescia, Amendola 8-10",45.52027155,10.22513094,0,Z1
1176,"Brescia, Villa",45.52135211,10.22874762,0,Z1
1177,"Brescia, Torricella Di Sopra fr.81",45.56213819,10.18849919,0,Z1
1178,"Brescia, Torricella Di Sopra 174",45.56421595,10.18421851,0,Z1
1179,"Cellatica, Fantasina fr.70",45.57058958,10.17976519,0,Z2
118,"Borgosatollo, S., Capolinea",45.46614103,10.24267303,0,Z2
1180,"Cellatica, Fantasina 13",45.57556716,10.17923884,0,Z2
1181,"Cellatica, Attico fr.Cimitero",45.57966605,10.17920711,0,Z2
1183,"Cellatica, Martiri Della Liberta' 5",45.58403277,10.18032654,0,Z2
1184,"Cellatica, Risorgimento fr.25, Scuole",45.5833494,10.17606532,0,Z2
1185,"Cellatica, Caporalino, fr.Edicola",45.58312158,10.17117356,0,Z2
1186,"Cellatica, Caporalino 36/d",45.58252936,10.16494596,0,Z2
1187,"Gussago, IV Novembre fr.124",45.58535207,10.15623153,0,Z2
1188,"Gussago, IV Novembre fr.102",45.58756043,10.15623704,0,Z2
1189,"Gussago, IV Novembre fr.32",45.59085767,10.15638148,0,Z2
119,"Borgosatollo, Santissima 161",45.46927157,10.24211746,0,Z2
1196,"Brescia, Corsica 340",45.52262416,10.19560562,0,Z1
1197,"Brescia, Parma",45.52158524,10.19040835,0,Z1
1198,"Brescia, Parma 15",45.52294631,10.18567773,0,Z1
1199,"Brescia, Tadini",45.52255185,10.18304435,0,Z1
120,"Borgosatollo, Santissima 97",45.47184103,10.24177299,0,Z2
1200,"Brescia, Noce",45.52304627,10.17930537,0,Z1
1201,"Brescia, La Spezia 14",45.52472711,10.18189724,0,Z1
1202,"Brescia, Savona 36",45.52377302,10.18328582,0,Z1
1203,"Brescia, Genova fr.54",45.5241352,10.18501381,0,Z1
1204,"Brescia, Parenzo, Scuole",45.5246963,10.1868916,0,Z1
1205,"Brescia, Parenzo fr.32",45.52318525,10.19293059,0,Z1
1206,"Brescia, Parenzo fr.6-8",45.5231963,10.19521431,0,Z1
1207,"Brescia, Garzetta 16-18",45.56193669,10.23903842,0,Z1
1208,"Brescia, Nikolajewka, Scuola Virgilio",45.5655194,10.24382486,0,Z1
121,"Brescia, S.Faustino 76",45.54448413,10.22000886,0,Z1
1214,"Brescia, Trisia fr.42",45.54021844,10.16607123,0,Z1
1215,"Brescia, Trisia",45.53948235,10.17009356,0,Z1
1216,"Roncadelle, F.lli Cervi 121",45.53723234,10.16705188,0,Z2
1217,"Roncadelle, F.lli Cervi 67",45.53477338,10.16387206,0,Z2
1218,"Roncadelle, F.lli Cervi 11",45.53059648,10.15980298,0,Z2
122,"Borgosatollo, 4 Novembre 132",45.4807438,10.23975073,0,Z2
1220,"Roncadelle, Martiri D.Liberta', Farmacia",45.52647339,10.1589859,0,Z2
1221,"Roncadelle, M.Della Liberta' fr.6-8",45.5237659,10.15351518,0,Z2
1222,"Castel Mella, Santuario 4",45.5211183,10.14923532,0,Z2
1223,"Castel Mella, Gramsci fr.7",45.51075717,10.14517441,0,Z2
1224,"Castel Mella, Matteotti 15",45.50705717,10.14649957,0,Z2
1227,"Castel Mella, Matteotti fr.27",45.5078905,10.14509117,0,Z2
1228,"Castel Mella, Santuario fr.104",45.5147155,10.1467799,0,Z2
123,"Borgosatollo, 4 Novembre 192",45.48593825,10.23887845,0,Z2
1231,"Castel Mella, Martiri Della Liberta' 6",45.52336001,10.15274088,0,Z2
1232,"Roncadelle, Martiri Della Liberta' 17",45.52654061,10.15925203,0,Z2
1234,"Roncadelle, F.lli Cervi fr.25",45.53153468,10.16047085,0,Z2
1235,"Roncadelle, F.lli Cervi 42",45.53475039,10.16394247,0,Z2
1236,"Roncadelle, F.lli Cervi fr.121",45.53771703,10.16847949,0,Z2
124,"Borgosatollo, 4 Novembre fr.259",45.48824659,10.23844512,0,Z2
1243,"Flero, XX Settembre fr.33",45.49167398,10.16584435,0,Z1
1244,"Flero, XX Settembre 57, Capolinea",45.49246004,10.16172208,0,Z1
1248,"Castel Mella, Dei Caduti 31-51",45.4932128,10.15647201,0,Z2
1249,"Castel Mella, Dei Caduti fr.12",45.49394052,10.15116084,0,Z2
125,"Borgosatollo, Brescia fr.75, Piffione",45.4925827,10.23722286,0,Z2
1250,"Castel Mella, Umberto I 7/a",45.49589046,10.14241908,0,Z2
1252,"Castel Mella, Capolinea",45.50400291,10.14689838,0,Z2
1254,"Castel Mella, Marconi fr.78",45.50108771,10.14565242,0,Z2
1255,"Castel Mella, Marconi 25",45.49823947,10.14413776,0,Z2
1257,"Castel Mella, Dei Caduti 26",45.49374055,10.15223585,0,Z2
1258,"Castel Mella, Dei Caduti 56",45.49311879,10.15636955,0,Z2
1259,"Brescia, Vannucci 24",45.51518001,10.25926183,0,Z1
126,"S.Z.Naviglio, Brescia 34",45.4953123,10.23496994,0,Z2
1260,"Brescia, Matteotti/Cairoli",45.53960644,10.21379473,0,Z1
1261,"Flero, Quinzano 12",45.4935017,10.15925539,0,Z1
1262,"S.Z.Naviglio, Diaz",45.50111021,10.22124265,0,Z1
1263,"Brescia, Diaz, Mercedes",45.50136043,10.22146711,0,Z1
1265,"Brescia, Zima 4",45.53163591,10.22437018,0,Z1
127,"S.Z.Naviglio, Volta, Cavalcavia Ovest",45.49850487,10.22729773,0,Z2
1272,"Brescia, Diaz 6",45.53087108,10.22572763,0,Z1
1273,"Brescia, Diaz 20",45.53069947,10.22883275,0,Z1
1274,"Brescia, Fiorentini fr.20",45.51360572,10.26228838,0,Z1
1275,"Brescia, Sanpolino Metro",45.5158994,10.26649816,0,Z1
1277,"Brescia, Zappa fr.22-40",45.51230277,10.26414638,0,Z1
1278,"Brescia, Zappa 42-60",45.51232162,10.26460275,0,Z1
1279,"Brescia, Fiorentini 20",45.51359115,10.26205076,0,Z1
128,"S.Z.Naviglio, Volta 5, Agricar",45.49987153,10.22248933,0,Z2
1280,"Brescia, Triumplina, Metrobus Casazza",45.57626104,10.23023563,0,Z1
1281,"Roncadelle, De Gasperi fr.13",45.5232044,10.14631852,0,Z2
129,"Brescia, Della Volta 201, Gnutti",45.50336875,10.22227543,0,Z1
130,"Brescia, Della Volta 81",45.51283267,10.22618931,0,Z1
131,"Brescia, Della Volta 33",45.51452346,10.22568801,0,Z1
132,"Brescia, Della Volta 21",45.51860131,10.22492782,0,Z1
133,"Brescia, Cremona 105",45.52567153,10.22337532,0,Z1
134,"Brescia, Cremona 49",45.52733002,10.22363548,0,Z1
135,"Brescia, Solferino 63",45.53148105,10.22325001,0,Z1
136,"Brescia, Solferino 55/a",45.53202567,10.22102391,0,Z1
137,"Brescia, Stazione, Portici",45.53332425,10.21263075,0,Z1
139,"Brescia, Verdi, Metrobus",45.53839929,10.21835576,0,Z1
14,"Brescia, Conicchio 17",45.57659997,10.23274675,0,Z1
140,"Brescia, Della Volta 179",45.51012155,10.22516431,0,Z1
141,"Brescia, Milano 94",45.54543251,10.19471341,0,Z1
142,"Brescia, Montedenno, Mompiano",45.57440285,10.24156073,0,Z1
143,"Brescia, S.Antonio fr.42",45.57409173,10.24004128,0,Z1
145,"Brescia, Europa fr.80",45.56713602,10.23751922,0,Z1
146,"Brescia, Europa 39, Politecnico",45.56460263,10.23603871,0,Z1
148,"Brescia, Schivardi 73-96",45.56198593,10.23729434,0,Z1
149,"Brescia, Schivardi 35",45.5603081,10.23602215,0,Z1
15,"Brescia, Triumplina 161",45.57449531,10.230861,0,Z1
150,"Brescia, Schivardi fr.80",45.55881918,10.23497775,0,Z1
151,"Brescia, Ospedale, Metro",45.55574229,10.23345743,0,Z1
153,"Brescia, Ducco 31",45.55350062,10.22947714,0,Z1
154,"Brescia, Crocifissa Di Rosa 54",45.5489502,10.22645859,0,Z1
155,"Brescia, Lombroso 44",45.54684007,10.2254007,0,Z1
156,"Brescia, Lombroso 2",45.5454449,10.22475695,0,Z1
157,"Brescia, M.Belfiore",45.53944099,10.22271694,0,Z1
159,"Brescia, Solferino 17/c",45.53324374,10.21583911,0,Z1
16,"Brescia, Triumplina 105",45.57190831,10.23151667,0,Z1
160,"Brescia, Repubblica",45.53455245,10.2107605,0,Z1
161,"Brescia, Corsica 14",45.53236033,10.20880014,0,Z1
162,"Brescia, Zara 12-14",45.53212698,10.20678067,0,Z1
163,"Brescia, Toscana 50-52",45.53055412,10.2046763,0,Z1
164,"Brescia, Don Bosco, fr.Salesiani",45.5295853,10.20208897,0,Z1
165,"Brescia, Dalmazia fr.59, Distr.carb.",45.52988249,10.19950006,0,Z1
166,"Brescia, Dalmazia fr.127",45.52554233,10.19779097,0,Z1
167,"Brescia, Fura 36",45.5253936,10.19599448,0,Z1
168,"Brescia, Fura fr.53",45.52608524,10.19285834,0,Z1
169,"Brescia, Fura 64/a",45.52676979,10.18901904,0,Z1
17,"Brescia, Triumplina 57-59",45.56902033,10.23097651,0,Z1
170,"Brescia, Genova 26",45.5266241,10.18640542,0,Z1
171,"Brescia, Parenzo 104",45.52546021,10.18508044,0,Z1
172,"Brescia, Parenzo 162",45.52639628,10.18189699,0,Z1
173,"Brescia, Livorno 3",45.52751572,10.18044972,0,Z1
175,"Brescia, Ghislandi 6",45.51821292,10.17694989,0,Z1
176,"Brescia, Ghislandi 58",45.51926566,10.17129698,0,Z1
179,"Brescia, Buozzi 28",45.51907948,10.15972171,0,Z1
18,"Brescia, Triumplina 37",45.5658442,10.22926089,0,Z1
180,"Brescia, Di Vittorio 26",45.51691003,10.1579023,0,Z1
181,"Brescia, Di Vittorio 28",45.51504334,10.15717732,0,Z1
182,"Brescia, Di Vittorio 32",45.51209335,10.15608017,0,Z1
183,"Brescia, Di Vittorio 52-54",45.5085461,10.1550108,0,Z1
184,"Brescia, Stassano",45.50717112,10.15925253,0,Z1
185,"Brescia, Gussalli 13",45.50937949,10.16157478,0,Z1
186,"Brescia, Grandi 45",45.51310827,10.16435376,0,Z1
187,"Brescia, Grandi 31",45.51642118,10.16592749,0,Z1
188,"Brescia, Grandi fr.2",45.5195624,10.16730841,0,Z1
189,"Brescia, Ghislandi",45.51910176,10.17187476,0,Z1
19,"Brescia, Triumplina 9",45.56044409,10.22814988,0,Z1
191,"Brescia, Noce, Capolinea",45.51794069,10.17725821,0,Z1
192,"Brescia, Noce 71",45.52300738,10.17949983,0,Z1
193,"Brescia, Chiesanuova, Capolinea",45.52760738,10.17755243,0,Z1
195,"Brescia, Roma",45.52816851,10.18268586,0,Z1
196,"Brescia, Fura fr.82",45.52734266,10.18660055,0,Z1
197,"Brescia, Orzinuovi 117",45.53014633,10.18590809,0,Z1
198,"Brescia, Orzinuovi 101, Chiesanuova",45.52977687,10.18724981,0,Z1
199,"Brescia, Orzinuovi 71-73",45.52895745,10.19007765,0,Z1
2,"Bovezzo, Battisti 34",45.59429479,10.237863,0,Z2
20,"Brescia, Trento 119/c",45.55719678,10.22612773,0,Z1
200,"Brescia, Orzinuovi 55",45.52806857,10.19314443,0,Z1
2000,"Gussago, Caporalino 47",45.58327986,10.15957885,0,Z2
2001,"Brescia, Lippi fr.6",45.5139888,10.25341306,0,Z1
2002,"Rezzato, Matteotti 26",45.51035559,10.312829,0,Z2
2003,"Rezzato, Matteotti 74",45.50607848,10.31170109,0,Z2
2004,"Rezzato, Giovanni XXIII",45.50539996,10.31036512,0,Z2
2005,"Rezzato, Prati fr.93",45.51198326,10.30107333,0,Z2
2008,"Roncadelle, Fermi 1",45.53069891,10.15077115,0,Z2
2009,"Brescia, Solferino",45.53387427,10.21301963,0,Z1
201,"Brescia, Orzinuovi 9",45.52706028,10.19662781,0,Z1
2011,"Nave, Zanardelli fr.61/l",45.58768942,10.25780497,0,Z2
2012,"Nave, Zanardelli 134",45.58497798,10.26424551,0,Z2
2013,"Concesio, Mattei 140",45.60207803,10.22438776,0,Z2
2014,"Flero, Umberto I, Scuole",45.48402403,10.17356393,0,Z2
2015,"Flero, Via Don F. Maeastrini 44",45.47099391,10.17636301,0,Z2
2016,"Flero, XXV Aprile fr.15",45.48540741,10.17999176,0,Z2
2017,"Flero, XXV Aprile 114",45.48794851,10.1807906,0,Z2
2018,"Bovezzo, Dei Prati 8",45.58957535,10.24192705,0,Z2
2019,"Bovezzo, Dei Prati 58",45.59025597,10.23667713,0,Z2
202,"Brescia, Dalmazia fr.113",45.53030751,10.19987785,0,Z1
2020,"Bovezzo, Brede fr.24",45.59263638,10.23378524,0,Z2
2021,"Concesio, Mattei fr.94",45.60444744,10.2209349,0,Z2
2022,"Brescia, Re Rotari 98",45.54158789,10.16646841,0,Z1
2023,"Castel Mella, Santuario 58/h",45.51705165,10.14747706,0,Z2
2025,"Brescia, Re Rotari 113",45.54130033,10.16634174,0,Z1
2026,"Flero, Manzoni 5",45.49262397,10.16696104,0,Z1
2027,"Castel Mella, IV Novembre 14",45.49823217,10.14550242,0,Z2
2028,"Castel Mella, IV Novembre 76",45.50110438,10.14733022,0,Z2
2029,"Brescia, Dalmazia 73-75",45.53165752,10.20041115,0,Z1
203,"Brescia, Don Bosco, Salesiani",45.52947062,10.20238365,0,Z1
2030,"Brescia, Nicolini fr.15",45.54646453,10.1956085,0,Z1
2031,"Brescia, Bevilacqua 12",45.54648896,10.19804277,0,Z1
2032,"Brescia, Giorgione",45.51351331,10.24918954,0,Z1
2033,"Brescia, Ferrari, ACI",45.51448275,10.2514062,0,Z1
2034,"Brescia, Ferrari fr.ACI",45.5145272,10.25136456,0,Z1
2035,"Brescia, Fossabagni, Galleria Speri",45.54449657,10.22444189,0,Z1
2036,"Rezzato, Leonardo Da Vinci 4, Scuole",45.51320012,10.315779,0,Z2
2037,"Rezzato, Amendola",45.51084441,10.30569282,0,Z2
204,"Brescia, Toscana 83",45.53035477,10.20477511,0,Z1
2040,"Brescia, Dalmazia fr.57",45.53187975,10.20033893,0,Z1
2041,"Bovezzo, Brede 24",45.59259749,10.23367135,0,Z2
2042,"Botticino, S.Gallo 134",45.56652298,10.30932824,0,Z2
2044,"Brescia, Tredicesima 5, Vill.Sereno",45.50747691,10.19070841,0,Z1
2046,"Botticino, S.Gallo 109",45.56835356,10.30956986,0,Z2
2049,"Brescia, Violino, Capolinea",45.54127955,10.16515173,0,Z1
205,"Brescia, Zara 39",45.53224088,10.2060501,0,Z1
2050,"Brescia, Conicchio/S.Antonio",45.57824171,10.23446339,0,Z1
2051,"Brescia, Conicchio 14",45.57679164,10.23306896,0,Z1
2052,"Nave, Capolinea",45.58681423,10.29807443,0,Z2
2053,"Brescia, Cavalcavia Kennedy",45.53223263,10.21756968,0,Z1
2055,"Brescia, Della Stazione fr.48-50",45.53304647,10.21236684,0,Z1
2057,"Brescia, XX Settembre fr.38",45.53436891,10.214853,0,Z1
2058,"Brescia, XX Settembre fr.22",45.53355424,10.21886854,0,Z1
2059,"Brescia, Crocifissa Di Rosa fr.74",45.55161258,10.22777781,0,Z1
206,"Brescia, Corsica 87/a",45.53216036,10.20870572,0,Z1
2062,"Brescia, Magenta fr.3",45.53636985,10.22240828,0,Z1
2063,"Castel Mella, Santuario 99",45.51689886,10.14750761,0,Z2
2064,"Castel Mella, Santuario 5/a",45.52127254,10.14943726,0,Z2
2065,"Brescia, Vitt.Emanuele II, INPS",45.53391599,10.21978359,0,Z1
2066,"Brescia, Foppa",45.53466038,10.21370296,0,Z1
2067,"Brescia, Branze fr.22",45.56294072,10.23591251,0,Z1
2068,"Brescia, Branze 22",45.56313592,10.23566654,0,Z1
207,"Brescia, Repubblica",45.53445544,10.21122912,0,Z1
2070,"Brescia, Montini",45.56652219,10.24268038,0,Z1
2071,"Brescia, Montini 28",45.56584165,10.24506653,0,Z1
2072,"Brescia, Collebeato 36",45.56757724,10.20941348,0,Z1
2073,"Brescia, Drammis 49",45.56902725,10.20985512,0,Z1
2074,"Brescia, Ragazzi Del 99 fr.40",45.56731611,10.20768566,0,Z1
2075,"Brescia, S.M.Battaglia 2",45.53609072,10.22176407,0,Z1
2076,"Castel Mella, Santuario 111",45.51242106,10.14596606,0,Z2
2077,"Brescia, Flero fr.131",45.50598524,10.19073898,0,Z1
2078,"Brescia, Flero 127",45.50646025,10.19111121,0,Z1
2079,"Brescia, Ghislandi fr.41",45.52022299,10.16687214,0,Z1
2080,"Brescia, Girelli fr.11",45.52049338,10.16202729,0,Z1
2083,"Brescia, Saffi, Stazione FS",45.5331159,10.21267038,0,Z1
2084,"Roncadelle, Ghislandi",45.53132385,10.14412933,0,Z2
2087,"Brescia, Zamboni",45.54729373,10.20759425,0,Z1
2088,"Brescia, Beccaria, Capolinea",45.54814927,10.20502196,0,Z1
209,"Brescia, Agazzi fr.60",45.57152503,10.24031356,0,Z1
2094,"Brescia, Amendola fr.25",45.52023266,10.22833653,0,Z1
2095,"Rezzato, Matteotti 62",45.50798056,10.31192067,0,Z2
2098,"Brescia, Capriolo 2",45.54170209,10.21893626,0,Z1
2099,"Brescia, Capriolo 52",45.5428076,10.21341109,0,Z1
21,"Brescia, Cipani 39",45.55515826,10.2254753,0,Z1
210,"Brescia, S.M.Battaglia 11",45.53640861,10.2220194,0,Z1
2101,"Brescia, Interna 20",45.5644244,10.20482454,0,Z1
2102,"Brescia, Collebeato, Edicola",45.56549943,10.20734679,0,Z1
2104,"Brescia, Bornata fr.46",45.5289301,10.25547283,0,Z1
2105,"Brescia, Bernini, Capolinea",45.52877179,10.25793396,0,Z1
2106,"Brescia, Manzoni 20/a",45.54372426,10.20956933,0,Z1
2107,"Brescia, Camozzi fr.37",45.54644927,10.20935262,0,Z1
2108,"Brescia, Cantore fr.28",45.55569941,10.2174166,0,Z1
2110,"Brescia, Tamburini 61",45.58070004,10.23218554,0,Z1
2111,"Brescia, Zola 32",45.57941946,10.23272446,0,Z1
2113,"Brescia, Lama",45.56741392,10.24770263,0,Z1
2114,"Brescia, Giotto 2",45.51101882,10.23886168,0,Z1
2115,"Brescia, Giotto fr.2",45.51088826,10.23830054,0,Z1
2117,"Brescia, Merisi",45.51521768,10.26303371,0,Z1
212,"Brescia, M.Belfiore",45.53921043,10.22281692,0,Z1
2120,"Nave, Brescia 191",45.58378067,10.27121915,0,Z2
2121,"Brescia, Cattaneo 45",45.53816689,10.22739856,0,Z1
2123,"Brescia, Leonardo Da Vinci 9",45.54536081,10.21959887,0,Z1
2124,"Rezzato, Giovanni XXIII 61",45.51694167,10.30290109,0,Z2
2125,"Brescia, Caduti Del Lavoro 17",45.55137419,10.18546592,0,Z1
2126,"Brescia, Caduti Del Lavoro 12",45.55174364,10.18573813,0,Z1
2127,"Brescia, Corsica 341",45.52432859,10.20065388,0,Z1
2128,"Brescia, Merisi",45.51655957,10.26511551,0,Z1
2129,"Brescia, Merisi, Lato Ovest",45.51531894,10.26284799,0,Z1
213,"Brescia, Lombroso 52",45.54693991,10.2255793,0,Z1
2130,"Brescia, Olves Di Prata",45.51515017,10.26616384,0,Z1
2136,"Brescia, Sanpolino, Capolinea",45.51878015,10.26822022,0,Z1
2138,"Brescia, Fiorentini 11",45.51889309,10.26536689,0,Z1
2139,"Brescia, Sanpolino Metro",45.5167051,10.26622857,0,Z1
214,"Brescia, Crocifissa Di Rosa 60",45.54898314,10.22659991,0,Z1
2140,"Brescia, Chiappa, Sant'Eufemia, Metro",45.51150522,10.28020649,0,Z1
2141,"Brescia, Chiappa, Sant'Eufemia, Metro",45.5116469,10.27979536,0,Z1
2143,"Brescia, Vivanti, Mompiano",45.56727766,10.23614698,0,Z1
2144,"Brescia, Dello Stadio 8",45.56892062,10.23742849,0,Z1
2146,"Castel Mella, Lombardia",45.49581828,10.14649412,0,Z2
2147,"Brescia, Triumplina, Prealpino Metro",45.58055939,10.22896873,0,Z1
2148,"Brescia, Fiorentini fr.11",45.518569,10.26482854,0,Z1
2151,"Brescia, Montebello 11/13",45.54514371,10.21015544,0,Z1
2153,"Brescia, C.da Del Carmine",45.54340207,10.21630283,0,Z1
2154,"Brescia, Camozzi 43-45",45.54651594,10.2092165,0,Z1
2156,"Brescia, Valsabbina, Pronto Soccorso",45.55932132,10.23036373,0,Z1
2157,"Bovezzo, Faini, FLOS",45.58642258,10.24666603,0,Z2
2158,"Bovezzo, Moie 20",45.58700042,10.24969658,0,Z2
2159,"Nave, Necropoli R.",45.58587268,10.2548411,0,Z2
216,"Brescia, S.Rocchino 104",45.5531718,10.23035284,0,Z1
2160,"Nave, Necropoli R.",45.58589768,10.25491333,0,Z2
2161,"Bovezzo, Moie fr.20",45.58707264,10.24960213,0,Z2
2162,"Bovezzo, Faini",45.5860198,10.24649381,0,Z2
2165,"Roncadelle, Di Vittorio fr.17",45.52269053,10.14492128,0,Z2
2167,"Brescia, Della Volta, Volta Metro",45.5180021,10.22505039,0,Z1
2168,"Collebeato, S.Francesco 9",45.58505539,10.21689368,0,Z2
2169,"Concesio, Pascoli",45.60524958,10.21839948,0,Z2
217,"Brescia, Ospedale, lato Est",45.55541908,10.23334726,0,Z1
2170,"Nave, Del Parco, Scuole Nave",45.58128987,10.28005864,0,Z2
2171,"Gussago, Genova",45.57838062,10.15594702,0,Z2
2172,"Gussago, Paolo Richiedei",45.58892735,10.15337484,0,Z2
2173,"Gussago, Genova",45.57848128,10.1556712,0,Z2
2174,"Gussago, Richiedei fr.67, Parco AIDO",45.58615446,10.15484854,0,Z2
2175,"Gussago, Trieste 14-16, Villa",45.58258099,10.15382989,0,Z2
2176,"Gussago, Trieste, Villa",45.58270089,10.15399205,0,Z2
2177,"Gussago, Italia fr.56",45.58076218,10.15762212,0,Z2
2178,"Gussago, Italia",45.58060983,10.15750634,0,Z2
2179,"Gussago, Alcide De Gasperi 12",45.58517214,10.15741068,0,Z2
218,"Brescia, Schivardi 48",45.55681912,10.23446667,0,Z1
2180,"Gussago, Alcide De Gasperi 26",45.58407892,10.15925115,0,Z2
2183,"Brescia, via Don Luigi Barberis, campo sportivo",45.51345389,10.26802823,0,Z1
2184,"Brescia, via don Luigi Barberis 3",45.51368223,10.26853638,0,Z1
219,"Brescia, Schivardi 80",45.55893307,10.23512494,0,Z1
22,"Brescia, Cipani 17",45.55316614,10.22443615,0,Z1
220,"Brescia, Schivardi 88",45.56009143,10.2359027,0,Z1
221,"Brescia, Schivardi 96",45.56140096,10.23697774,0,Z1
223,"Brescia, Dante 2",45.53911041,10.21750019,0,Z1
224,"Brescia, Ambaraga 124",45.56894999,10.24128866,0,Z1
225,"Brescia, Agazzi 49",45.5698611,10.23929138,0,Z1
227,"Brescia, Montini fr.2",45.56589017,10.24505851,0,Z1
23,"Brescia, Cipani 3",45.55050774,10.2228501,0,Z1
231,"Brescia, Europa fr.30",45.56249146,10.23482485,0,Z1
232,"Brescia, Europa fr.14",45.55942186,10.23362829,0,Z1
233,"Brescia, Dal Monte fr.4",45.55551901,10.22808332,0,Z1
234,"Brescia, Vitt.Emanuele II 9",45.53494847,10.21443413,0,Z1
235,"Brescia, L.Gambara 34, Palagiustizia",45.53135764,10.21967526,0,Z1
236,"Brescia, XX Settembre 72, Porta Cremona",45.53278543,10.22223084,0,Z1
237,"Brescia, XXV Aprile 8",45.53231679,10.2249545,0,Z1
238,"Brescia, Inganni 10",45.53120572,10.22965384,0,Z1
239,"Brescia, F.Boario",45.52842623,10.23351416,0,Z1
24,"Brescia, Trento 11/b",45.5478827,10.22098066,0,Z1
240,"Brescia, Foro Boario 4-12",45.52790772,10.23684489,0,Z1
241,"Brescia, Verrocchio 254",45.52058836,10.25773958,0,Z1
242,"Brescia, Lonati 12-16",45.52577163,10.24633109,0,Z1
243,"Brescia, Donatello 88-92",45.52328274,10.24720613,0,Z1
244,"Brescia, Donatello 204",45.52091184,10.24886502,0,Z1
245,"Brescia, Bramante fr.218",45.52165776,10.2518923,0,Z1
246,"Brescia, Bramante 54",45.52384943,10.25122005,0,Z1
247,"Brescia, Lonati fr.12-16",45.52574385,10.24607834,0,Z1
248,"Brescia, S.Polo 33, Questura",45.52559384,10.24272829,0,Z1
249,"Brescia, S.Polo 11, Lonati",45.5267355,10.24133939,0,Z1
25,"Brescia, Trento 1",45.54676322,10.22041122,0,Z1
250,"Brescia, Foro Boario 11",45.52804335,10.2362151,0,Z1
251,"Brescia, A.Diaz 41",45.53097714,10.23265038,0,Z1
252,"Brescia, Diaz 17",45.53080029,10.22957788,0,Z1
253,"Brescia, Diaz 5",45.53086997,10.22598759,0,Z1
255,"Borgosatollo, Di Vittorio fr.11",45.47385769,10.24251187,0,Z2
256,"Borgosatollo, Molino Vecchio fr.179",45.47773551,10.2542314,0,Z2
257,"Brescia, Dal Monte 6",45.55542457,10.22820555,0,Z1
258,"Brescia, Europa 12",45.56079419,10.23403879,0,Z1
259,"Brescia, Europa 30",45.56211923,10.23478044,0,Z1
26,"Brescia, Prima 27",45.49570504,10.27685932,0,Z1
260,"Brescia, Europa fr.Politecnico",45.56487763,10.2363387,0,Z1
269,"Brescia, Della Pendolina, Capolinea",45.56668785,10.20603554,0,Z1
27,"Brescia, S.Faustino 35",45.54245131,10.2196333,0,Z1
270,"Brescia, Ercoli 9-11",45.56507163,10.2041023,0,Z1
271,"Brescia, Interna fr.2",45.5653466,10.20066609,0,Z1
272,"Brescia, Della Chiesa 53",45.56291879,10.19831606,0,Z1
273,"Brescia, Settima 4-6, Quartiere Abba",45.56102431,10.19641883,0,Z1
274,"Brescia, Quarta 13, Quartiere Abba",45.56073542,10.19406878,0,Z1
275,"Brescia, Quarta 3, Quartiere Abba",45.55960764,10.19348822,0,Z1
276,"Brescia, Dei Cominazzi 57-59",45.55844094,10.19259098,0,Z1
277,"Brescia, Scarampella 3-5",45.5561659,10.19049375,0,Z1
278,"Brescia, Colombo 11",45.55459888,10.19064874,0,Z1
279,"Brescia, Colombo 5",45.55360201,10.19142159,0,Z1
280,"Brescia, Volturno 86, Scuole Romanino",45.54901775,10.1973563,0,Z1
281,"Brescia, Volturno",45.54869092,10.20328856,0,Z1
282,"Brescia, Volturno",45.54788538,10.20747479,0,Z1
283,"Castenedolo, Capolinea Capodimonte",45.46766887,10.26440935,0,Z2
285,"Brescia, Marsala 29, Finanza",45.54325173,10.21526184,0,Z1
286,"Brescia, Marsala 11-13",45.54100687,10.21446607,0,Z1
287,"Brescia, Zanardelli",45.53392984,10.21816968,0,Z1
289,"Brescia, Porcellaga 17",45.53842505,10.21770184,0,Z1
292,"Brescia, Magenta fr.49",45.5359313,10.22536867,0,Z1
293,"Brescia, Magenta 64",45.53575708,10.22882555,0,Z1
294,"Brescia, Porta Venezia",45.53607716,10.23277141,0,Z1
295,"Brescia, Venezia 94",45.53448715,10.23770732,0,Z1
296,"Brescia, Venezia 158-160",45.53290499,10.24211437,0,Z1
297,"Brescia, Venezia 196",45.53218556,10.24413106,0,Z1
298,"Brescia, Venezia 236",45.53144391,10.24699497,0,Z1
299,"Brescia, Venezia 272",45.53121025,10.24950455,0,Z1
3,"Bovezzo, Brede 22",45.59382374,10.23361304,0,Z2
30,"Brescia, Verrocchio, Cimitero",45.52358282,10.25575343,0,Z1
300,"Brescia, Bornata 30",45.52963286,10.2535367,0,Z1
3003,"Nave, Giacomini, Nave, Scuole",45.58822484,10.28098977,0,Z2
3004,"Preseglie, Roma/Fante",45.6690703,10.39779034,0,ZX
3005,"Barghe, SP237 Guglielmo Marconi",45.68057889,10.40887904,0,ZX
301,"Brescia, Bornata 60, Whurer",45.52825511,10.25739786,0,Z1
3015,"Brescia, Vivanti, Mompiano Metro",45.56755033,10.23585417,0,Z1
3019,"Brescia, Del Castello, Castello",45.54160794,10.22450188,0,Z1
302,"Brescia, Bornata 80",45.52771624,10.25922564,0,Z1
3020,"Brescia, S.Faustino/Del Castello",45.54471994,10.2200055,0,Z1
3021,"Brescia, Sanson",45.53000793,10.25943675,0,Z1
3022,"Brescia, Sanson 9",45.53049125,10.25733672,0,Z1
3023,"Brescia, Marini 1",45.53100508,10.25195615,0,Z1
3025,"Brescia, C.Cattaneo",45.53864682,10.22440543,0,Z1
3027,"Concesio, Europa, Centro Commerciale",45.58735702,10.22564675,0,Z2
3028,"Concesio, Pascoli fr.Municipio",45.60633628,10.21593483,0,Z2
3029,"Concesio, Pascoli, Municipio",45.6064161,10.21593284,0,Z2
303,"Brescia, Bornata, Pastori",45.5265385,10.2621368,0,Z1
3030,"Concesio, Maniva, Costorio",45.61576954,10.20233176,0,Z2
3031,"Concesio, Don Cattina, Cimitero",45.61463618,10.20206234,0,Z2
3032,"Concesio, Bachelet fr.11",45.61151397,10.20566243,0,Z2
3033,"Concesio, Sorlini",45.61241941,10.19835126,0,Z2
3034,"Concesio, Tripoli fr.8",45.61697776,10.19417058,0,Z2
3035,"Concesio, Morandi Gilli 97",45.61467212,10.19235116,0,Z2
3036,"Concesio, Cottinelli fr.26/a, Chiesa",45.60925818,10.19355409,0,Z2
3037,"Concesio, Mazzini fr.82",45.60934682,10.1984952,0,Z2
3038,"Concesio, Camerate, Retro Auchan",45.58837786,10.22806589,0,Z2
3039,"Concesio, S.Gervasio 153",45.5977668,10.22159895,0,Z2
304,"Brescia, Della Rimembranza 150",45.52342741,10.26791465,0,Z1
3040,"Concesio, S.Gervasio fr.36",45.60097512,10.21774331,0,Z2
305,"Brescia, Saleri fr.15",45.52251617,10.26902599,0,Z1
3056,"Brescia, Sanson 37",45.53179677,10.25433949,0,Z1
3059,"Concesio, S.Gervasio/Mella",45.60377788,10.21477377,0,Z2
306,"Brescia, Saleri fr.49",45.52154412,10.27200079,0,Z1
307,"Brescia, Indipendenza 78",45.52099692,10.27469805,0,Z1
308,"Brescia, S.Orsola 76/a",45.52084699,10.28014255,0,Z1
3084,"Concesio, Europa",45.61456014,10.20467395,0,Z2
3085,"Concesio, Europa 232",45.6082272,10.20978775,0,Z2
3086,"Concesio, Mazzini fr.54",45.60952851,10.20161235,0,Z2
3087,"Concesio, Europa 197",45.60816885,10.20965552,0,Z2
3088,"Concesio, Europa 62",45.59155442,10.22556791,0,Z2
309,"Brescia, Goldoni 2-4, Scuole",45.52156648,10.28398981,0,Z1
310,"Brescia, Goldoni fr.11",45.52188319,10.28722594,0,Z1
311,"Brescia, Goldoni fr.27",45.52271656,10.29085651,0,Z1
312,"Brescia, Goldoni fr.51/b",45.52531941,10.29316484,0,Z1
313,"Brescia, Goldoni 227",45.52741267,10.29414053,0,Z1
314,"Brescia, Goldoni 157",45.53001392,10.29530373,0,Z1
315,"Brescia, S.Orsola 201",45.53005281,10.29390649,0,Z1
316,"Brescia, Zambaldi fr.48",45.52772173,10.29258991,0,Z1
317,"Brescia, Fontane fr.19",45.57054448,10.2420886,0,Z1
318,"Brescia, Fontane 30",45.57163694,10.24294399,0,Z1
319,"Brescia, Goldoni, Scuole",45.5218915,10.28432312,0,Z1
32,"Brescia, Saffi 10",45.53316318,10.21773357,0,Z1
320,"Brescia, S.Orsola fr.44",45.5206275,10.27820364,0,Z1
321,"Brescia, Indipendenza 71/b",45.52113582,10.27444806,0,Z1
322,"Brescia, Indipendenza 37",45.52191632,10.27171747,0,Z1
323,"Brescia, Bornata fr.60",45.52820237,10.25843396,0,Z1
324,"Brescia, Indipendenza 15",45.52326632,10.26860911,0,Z1
325,"Brescia, Della Rimembranza 123",45.52394082,10.26701258,0,Z1
326,"Brescia, Bornata 117",45.5259813,10.263808,0,Z1
327,"Brescia, Bornata fr.110, Pastori",45.52674784,10.26209499,0,Z1
329,"Brescia, Bornata 11/c, Edicola",45.52991104,10.25334925,0,Z1
33,"Brescia, Malta 12",45.52649928,10.2149169,0,Z1
330,"Brescia, Venezia 97",45.53128561,10.24991446,0,Z1
331,"Brescia, Venezia 83",45.53148836,10.24736443,0,Z1
332,"Brescia, Venezia 65, Boifava",45.53234112,10.24384216,0,Z1
333,"Brescia, Venezia fr.154",45.53306327,10.24188156,0,Z1
334,"Brescia, Venezia fr.94",45.53444105,10.23798653,0,Z1
335,"Brescia, Venezia 8-13",45.53591764,10.23393617,0,Z1
336,"Brescia, Spalto S.Marco 49, Porta Venezia",45.53576325,10.23097814,0,Z1
337,"Brescia, Spalto S.Marco 37/f",45.53280767,10.22745033,0,Z1
338,"Brescia, Spalto S.Marco 7, Porta Cremona",45.53319656,10.22386697,0,Z1
339,"Brescia, Gramsci 35, Controstrada",45.53509307,10.21852645,0,Z1
34,"Brescia, Cefalonia 39",45.52606315,10.21225021,0,Z1
340,"Brescia, Verdi",45.53873197,10.21843043,0,Z1
341,"Brescia, Cairoli 2",45.53929927,10.21503625,0,Z1
345,"Brescia, Volturno 34-36",45.5472604,10.21034431,0,Z1
346,"Brescia, Volturno 62",45.54795483,10.20775535,0,Z1
347,"Brescia, Volturno 78, IVECO",45.54875668,10.2035016,0,Z1
348,"Brescia, Volturno fr.86, Scuole Romanino",45.54917977,10.19732734,0,Z1
349,"Brescia, Colombo 10",45.55360756,10.19158548,0,Z1
35,"Brescia, Cipro 76",45.52373465,10.21046773,0,Z1
350,"Brescia, Colombo 30",45.55500201,10.1905382,0,Z1
351,"Brescia, Scarampella 28",45.55611037,10.19057708,0,Z1
352,"Brescia, Dei Cominazzi 56",45.55842983,10.19277155,0,Z1
355,"Brescia, Della Chiesa 90-92",45.56187434,10.19782718,0,Z1
356,"Brescia, Risorgimento 49",45.56330769,10.20080502,0,Z1
357,"Brescia, Tiboni fr.43",45.56398695,10.20331523,0,Z1
361,"Brescia, Valcamonica, Capolinea",45.5484562,10.15517371,0,Z1
362,"Brescia, Prima fr.120, Vill.Badia",45.54966846,10.15846255,0,Z1
363,"Brescia, Prima 79, Vill.Badia",45.54935735,10.16096261,0,Z1
364,"Brescia, Prima fr.24, Vill.Badia",45.54897404,10.16387657,0,Z1
365,"Brescia, Santellone 9",45.54794905,10.1656433,0,Z1
366,"Brescia, Valle Camonica 19",45.54682684,10.1704601,0,Z1
367,"Brescia, Valle Camonica fr.15",45.54653798,10.17403517,0,Z1
368,"Brescia, Valle Camonica 11/g",45.54675189,10.17879916,0,Z1
369,"Brescia, Valle Camonica 9",45.54718523,10.1812242,0,Z1
37,"Brescia, Lamarmora 39, Piscina",45.52328257,10.20699739,0,Z1
370,"Brescia, Milano 117",45.54707834,10.18494368,0,Z1
371,"Brescia, Milano 3",45.5422232,10.20950547,0,Z1
372,"Brescia, Milano 99",45.5462722,10.18879879,0,Z1
374,"Brescia, Milano 45",45.54532383,10.19487521,0,Z1
375,"Brescia, Milano fr.74",45.5446527,10.19807369,0,Z1
376,"Brescia, Milano 17, Cimitero",45.54374088,10.20256639,0,Z1
377,"Brescia, Milano fr.52",45.54415176,10.20030266,0,Z1
378,"Brescia, Milano fr.18/b",45.5429715,10.20673751,0,Z1
38,"Brescia, Lamarmora fr.60",45.52427975,10.20344457,0,Z1
383,"Brescia, Duca D'Aosta fr.3-5",45.5309573,10.23438969,0,Z1
384,"Brescia, Piave 6",45.53091604,10.23847547,0,Z1
385,"Brescia, Piave 40",45.53058274,10.24292272,0,Z1
386,"Brescia, Piave 52/b",45.53026978,10.24772293,0,Z1
387,"Brescia, Piave 70",45.53030784,10.24992557,0,Z1
389,"Brescia, Piave 227",45.53039395,10.25017833,0,Z1
39,"Brescia, Corsica 204, Flaminia",45.52448809,10.20101678,0,Z1
390,"Brescia, Piave 201",45.53039947,10.24691719,0,Z1
391,"Brescia, Piave 89",45.53071973,10.2421946,0,Z1
392,"Brescia, Piave 17",45.53108549,10.23816434,0,Z1
393,"Brescia, Duca D'Aosta fr.14",45.53108982,10.23597457,0,Z1
394,"Brescia, Dei Mille 33-35, Lotto Sud",45.54014885,10.21144805,0,Z1
395,"Brescia, Garibaldi, Lato Nord",45.54184005,10.2114376,0,Z1
396,"Brescia, Milano 14",45.5430409,10.20683039,0,Z1
397,"Brescia, Milano 32",45.54360477,10.2039331,0,Z1
398,"Brescia, Milano 52",45.54430755,10.20000523,0,Z1
399,"Brescia, Milano 78/b",45.54486031,10.1974857,0,Z1
4,"Bovezzo, dei Prati 33",45.59013082,10.23704087,0,Z2
40,"Brescia, Flero 18",45.52278251,10.19886675,0,Z1
401,"Brescia, Milano 138/d",45.54622947,10.19012094,0,Z1
402,"Brescia, Milano 166/a",45.54727136,10.18442428,0,Z1
403,"Brescia, Valle Camonica 10",45.54716857,10.1804992,0,Z1
404,"Brescia, Valle Camonica 14-F",45.54660742,10.17452406,0,Z1
405,"Brescia, Valle Camonica fr.19",45.54699538,10.17033801,0,Z1
406,"Brescia, Santellone 2",45.54818775,10.16576535,0,Z1
407,"Brescia, Prima 18, Vill.Badia",45.54896015,10.16454605,0,Z1
4070,"Brescia, Cristoforo Colombo, L.De Andre'",45.55674163,10.18906408,0,Z1
408,"Brescia, Prima 68, Vill.Badia",45.54944346,10.1605765,0,Z1
409,"Brescia, Prima 114-116, Vill.Badia",45.54972402,10.15838478,0,Z1
41,"Brescia, Flero 27",45.51637415,10.19509176,0,Z1
410,"Brescia, Triumplina, Capolinea",45.58410629,10.22450308,0,Z1
411,"Brescia, Stretta 181",45.58038839,10.22476594,0,Z1
412,"Brescia, Gadola 57-59",45.57934995,10.22764664,0,Z1
413,"Brescia, Gadola 39",45.57696935,10.22778005,0,Z1
414,"Brescia, Gadola 7-9",45.57421095,10.22613009,0,Z1
415,"Brescia, Stretta fr.142",45.57249421,10.22420236,0,Z1
416,"Brescia, Melzi fr.11",45.56989136,10.22234408,0,Z1
417,"Brescia, Del Gallo 13",45.56927187,10.22009408,0,Z1
418,"Brescia, Canovetti",45.56664958,10.21811635,0,Z1
419,"Brescia, Canovetti 5-7",45.56435313,10.21698923,0,Z1
42,"Brescia, V fr.19, Vill.Sereno",45.51602968,10.19300563,0,Z1
420,"Brescia, Scuole fr.12",45.56181334,10.21489976,0,Z1
421,"Brescia, S.Donino, Mensa",45.55883158,10.21403732,0,Z1
422,"Brescia, S.Donino 47",45.55854387,10.21591097,0,Z1
423,"Brescia, A.Cantore fr.8, ITIS",45.55584383,10.21624712,0,Z1
424,"Brescia, Veneto 69",45.55351605,10.2162388,0,Z1
425,"Brescia, Veneto 25",45.5505519,10.21510426,0,Z1
427,"Brescia, Rocca d'Anfo 7",45.54913654,10.22071309,0,Z1
43,"Brescia, Dodicesima 42, Vill.Sereno",45.51539078,10.19089172,0,Z1
431,"Brescia, Cremona 76",45.52659934,10.22343088,0,Z1
432,"Brescia, Cremona 284, Sperimentale",45.52271877,10.22321979,0,Z1
433,"Brescia, Cremona, Giardini Leonessa",45.5209667,10.22446634,0,Z1
434,"Brescia, Borgosatollo 2",45.51354378,10.22783654,0,Z1
435,"Brescia, Maggia 8, Croce Bianca",45.51061636,10.23537817,0,Z1
436,"Brescia, Giotto 30",45.51189938,10.24117002,0,Z1
437,"Brescia, Carpaccio 28",45.51259385,10.24502838,0,Z1
439,"Brescia, Fiorentini 41",45.51180899,10.25281544,0,Z1
44,"Brescia, Dodicesima 60, Vill.Sereno",45.51439078,10.18996392,0,Z1
440,"Brescia, Fiorentini 29/b",45.51232171,10.25661635,0,Z1
442,"Brescia, Arici 50",45.51097166,10.26125354,0,Z1
443,"Brescia, Arici 92",45.50896611,10.26093967,0,Z1
444,"Brescia, Arici 110",45.50839945,10.25893132,0,Z1
445,"Brescia, Arici 138-140",45.50765221,10.25636741,0,Z1
446,"Brescia, S.Polo 250",45.50606275,10.25674332,0,Z1
447,"Brescia, Bettole 54",45.50204666,10.26159805,0,Z1
448,"Brescia, Bettole 102",45.49981055,10.26428976,0,Z1
449,"Brescia, Serenissima 37",45.49474948,10.27176762,0,Z1
45,"Brescia, IX 146, Vill.Sereno",45.51188243,10.18676113,0,Z1
450,"Brescia, Buffalora 87",45.49689576,10.27431455,0,Z1
451,"Brescia, Buffalora 73-75",45.49893737,10.27687953,0,Z1
452,"Brescia, Seriola Vescovada, Cimitero",45.49822454,10.28105659,0,Z1
453,"Brescia, Seriola Vescovada fr.98",45.49603562,10.27904824,0,Z1
454,"Brescia, Serenissima",45.49483559,10.27073151,0,Z1
455,"Brescia, Bettole 65",45.50026613,10.26382862,0,Z1
456,"Brescia, Bettole 31",45.50248278,10.2611758,0,Z1
457,"Brescia, S.Polo 329",45.50604944,10.25692854,0,Z1
458,"Brescia, Arici 123",45.50780984,10.25712258,0,Z1
459,"Brescia, Arici 79",45.50840698,10.25917554,0,Z1
46,"Brescia, Diciottesima 8, Vill.Sereno",45.51136019,10.18436667,0,Z1
460,"Brescia, Arici 57",45.50896811,10.26123866,0,Z1
461,"Brescia, Arici 33-35",45.51093308,10.26134812,0,Z1
463,"Brescia, Fiorentini 86",45.51251333,10.25699518,0,Z1
464,"Brescia, Fiorentini fr.41",45.51182163,10.25237013,0,Z1
466,"Brescia, Carpaccio 1",45.51240893,10.24433167,0,Z1
467,"Brescia, Giotto 1",45.51172299,10.24038258,0,Z1
468,"Brescia, Maggia fr.8",45.51086326,10.23506439,0,Z1
469,"Brescia, Borgosatollo, Area Spettacoli",45.51305232,10.22914425,0,Z1
47,"Brescia, Tredicesima 109-111, V.Sereno",45.50943519,10.18364445,0,Z1
470,"Brescia, Cremona 197, Giardini Leonessa",45.52085767,10.22463925,0,Z1
471,"Brescia, Cremona 171, Sperimentale",45.52294656,10.22326147,0,Z1
472,"Brescia, Cremona 7-9",45.52897668,10.2239639,0,Z1
474,"Botticino, Speri fr.129",45.53475021,10.30654546,0,Z2
475,"Brescia, Serenissima, Capolinea",45.4968763,10.27405463,0,Z1
476,"Brescia, Stretta 134",45.57181085,10.22418569,0,Z1
477,"Brescia, Bissolati 6",45.52018822,10.22993652,0,Z1
478,"Brescia, Trento 15/z",45.54984567,10.22207359,0,Z1
479,"Brescia, Rocca d'Anfo",45.54933826,10.22017227,0,Z1
48,"Brescia, Vill.Sereno, Capolinea",45.50856854,10.18680837,0,Z1
480,"Brescia, Montenero 26",45.55018546,10.21589996,0,Z1
481,"Brescia, Veneto 58",45.5513799,10.21556105,0,Z1
482,"Brescia, S.D'Acquisto fr.69, Giardini",45.55333691,10.21644803,0,Z1
483,"Brescia, Balestrieri, Copernico",45.52434216,10.23246826,0,Z1
484,"Brescia, S.Donino fr.37",45.55834942,10.21735822,0,Z1
485,"Brescia, S.Donino 34",45.55894385,10.2144526,0,Z1
486,"Brescia, Scuole 12",45.56194111,10.21508033,0,Z1
487,"Brescia, Scuole",45.56355904,10.21728052,0,Z1
488,"Brescia, Scuole, Oratorio",45.56527457,10.21921083,0,Z1
489,"Brescia, Gabbiane",45.56684405,10.21926079,0,Z1
49,"Brescia, II 61, Vill.Sereno",45.50795468,10.19057507,0,Z1
490,"Brescia, Del Gallo 48",45.5696691,10.22033851,0,Z1
491,"Brescia, Stretta 112",45.57012751,10.22332463,0,Z1
492,"Brescia, Stretta 148",45.57314144,10.22451067,0,Z1
493,"Brescia, Gadola fr.7-9",45.57424151,10.22623842,0,Z1
494,"Brescia, Gadola fr.41-43",45.57785268,10.2278189,0,Z1
495,"Brescia, Gadola 32",45.57947023,10.22773815,0,Z1
496,"Brescia, Torricella Di Sopra 81",45.56167469,10.18916831,0,Z1
497,"Brescia, Torricella Di Sopra 37",45.55964253,10.19242323,0,Z1
498,"Brescia, Torricella Di Sopra 15",45.55843281,10.19427089,0,Z1
499,"Brescia, Crotte 49",45.55755481,10.19700489,0,Z1
5,"Bovezzo, Dei Prati 1",45.58947069,10.24229636,0,Z2
50,"Brescia, Seconda fr.30, Vill.Sereno",45.51018245,10.19185565,0,Z1
500,"Brescia, Crotte 5",45.55673178,10.19965958,0,Z1
501,"Brescia, A.Franchi 23",45.5554382,10.20388573,0,Z1
502,"Brescia, A.Franchi fr.20",45.55482264,10.20655395,0,Z1
503,"Brescia, A.Franchi 16-18",45.5541049,10.2095553,0,Z1
504,"Brescia, S.Bartolomeo 4",45.55452714,10.21199149,0,Z1
507,"Brescia, Vittorio Veneto 3",45.54863117,10.2143475,0,Z1
509,"Brescia, Tartaglia 47",45.54404649,10.21192771,0,Z1
51,"Brescia, Seconda 1, Vill.Sereno",45.51216859,10.19256674,0,Z1
512,"Brescia, San Zeno 138",45.52070487,10.2173392,0,Z1
513,"Brescia, Lamarmora 187",45.52057983,10.21544471,0,Z2
514,"Brescia, Lamarmora, Metro",45.52149649,10.21224745,0,Z1
515,"Brescia, Dalmazia 127",45.5257527,10.1980345,0,Z1
516,"Brescia, Salgari 41",45.52538808,10.20079176,0,Z1
517,"Brescia, Lamarmora 138/a",45.52124373,10.21229638,0,Z1
518,"Brescia, Lamarmora 230",45.52046316,10.21515029,0,Z1
519,"Brescia, San Zeno 115",45.52079451,10.21763384,0,Z1
52,"Brescia, Settima 54, Vill.Sereno",45.51332134,10.19044729,0,Z1
520,"Botticino, Cavour fr.42",45.53347787,10.29784541,0,Z2
521,"Brescia, Verrocchio 16",45.52345504,10.2556951,0,Z1
522,"Brescia, Calatafimi 8/e",45.54223814,10.21212498,0,Z1
523,"Brescia, L.Di Toscana",45.54474373,10.21330275,0,Z1
524,"Brescia, Vittorio Veneto 20",45.54908265,10.21461381,0,Z1
525,"Brescia, Fontane 48",45.57290843,10.24372467,0,Z1
527,"Brescia, S.Bartolomeo 4, Medie Fermi",45.55427713,10.21182203,0,Z1
528,"Brescia, A.Franchi, Innse",45.55409935,10.20994977,0,Z1
529,"Brescia, A.Franchi 20",45.55478267,10.20702192,0,Z1
53,"Brescia, Dodicesima 23, Vill.Sereno",45.51504512,10.19070269,0,Z1
530,"Brescia, A.Franchi",45.55553542,10.20391628,0,Z1
531,"Brescia, Crotte 2/e",45.5563493,10.20071898,0,Z1
532,"Brescia, Crotte 18",45.55738539,10.19772446,0,Z1
533,"Brescia, Torricella Di Sopra 56",45.55863092,10.19413702,0,Z1
534,"Brescia, Torricella Di Sopra 112",45.55984095,10.19247708,0,Z1
535,"Brescia, Oberdan 4/b",45.55849403,10.22579991,0,Z1
536,"Brescia, Oberdan 6/r",45.55917451,10.22165544,0,Z1
537,"Brescia, Oberdan 12-C, Ist.Tartaglia",45.5597939,10.21760261,0,Z1
538,"Brescia, S.Bartolomeo 23/b",45.55872161,10.21338035,0,Z1
539,"Brescia, S.Bartolomeo fr.16",45.55598271,10.21243592,0,Z1
54,"Brescia, V 19, Vill.Sereno",45.51587612,10.19308889,0,Z1
540,"Brescia, Fiume fr.30",45.55047432,10.21120261,0,Z1
543,"Brescia, F.lli Ugoni 4",45.54088466,10.2105022,0,Z1
544,"Brescia, Ugoni 26",45.53852009,10.20984252,0,Z1
545,"Brescia, Ugoni, Freccia Rossa",45.53568814,10.2106196,0,Z1
546,"Brescia, Repubblica",45.53480743,10.21093821,0,Z1
547,"Brescia, Corsica fr.44-46, ASL",45.53029089,10.20741403,0,Z1
548,"Brescia, Corsica 116",45.52741864,10.20475568,0,Z1
549,"Brescia, Corsica 192",45.52523531,10.20303901,0,Z1
55,"Brescia, Flero 29",45.51637414,10.19521676,0,Z1
550,"Brescia, Labirinto 6",45.52275473,10.1967195,0,Z1
551,"Brescia, Labirinto, Cavalcavia Nord",45.52167136,10.19560562,0,Z1
552,"Brescia, Labirinto fr.125",45.51806578,10.18997224,0,Z1
553,"Brescia, V 65, Vill.Sereno",45.51699357,10.19001113,0,Z1
554,"Brescia, Labirinto 320, Villaggio Sereno",45.5122324,10.18352499,0,Z1
555,"Brescia, Labirinto 328",45.51068239,10.18163054,0,Z1
556,"Brescia, Labirinto 428",45.50589069,10.17528604,0,Z1
557,"Brescia, Malanotte 6",45.50358513,10.17379158,0,Z1
558,"Brescia, Verziano",45.50165455,10.1725277,0,Z1
559,"Brescia, Malibran fr.19, Scuole",45.49971288,10.1698499,0,Z1
560,"Brescia, Fornaci 57",45.49732395,10.1642471,0,Z1
561,"Brescia, Fornaci 39",45.5001712,10.16799156,0,Z1
562,"Brescia, Fornaci 13",45.50221567,10.17060267,0,Z1
563,"Brescia, Labirinto fr.450",45.50549068,10.17519437,0,Z1
564,"Brescia, Labirinto fr.328",45.5109909,10.18235496,0,Z1
565,"Brescia, Nona 117, Vill.Sereno",45.51178798,10.18681391,0,Z1
566,"Brescia, Dodicesima 37, Vill.Sereno",45.51307449,10.18910672,0,Z1
567,"Brescia, V 34, Vill.Sereno",45.51687134,10.19053894,0,Z1
568,"Brescia, Labirinto, Cavalcavia Sud",45.52085446,10.19298819,0,Z1
569,"Brescia, Labirinto fr.6",45.52277178,10.19690919,0,Z1
57,"Brescia, Flero fr.18",45.52265851,10.19890083,0,Z1
570,"Brescia, Corsica 315",45.5251103,10.20306124,0,Z1
571,"Brescia, Corsica 259",45.52755476,10.20507791,0,Z1
572,"Brescia, Corsica 175",45.52904176,10.2062969,0,Z1
573,"Brescia, Corsica 129",45.53072145,10.20777792,0,Z1
574,"Brescia, Repubblica",45.53457988,10.21139357,0,Z1
575,"Brescia, Dei Mille 47",45.53582704,10.21171405,0,Z1
576,"Brescia, Dei Mille 41/b",45.53814838,10.2108978,0,Z1
58,"Brescia, Lamarmora 12",45.5241492,10.20336679,0,Z1
581,"Brescia, Fiume 34",45.55069291,10.21148944,0,Z1
582,"Brescia, S.Bartolomeo 16",45.55621883,10.21261649,0,Z1
583,"Brescia, S.Bartolomeo 38",45.55839598,10.21343409,0,Z1
584,"Brescia, Oberdan 27",45.56011332,10.21456093,0,Z1
585,"Brescia, Oberdan fr.12, Ist.Tartaglia",45.55957445,10.21803597,0,Z1
586,"Brescia, Oberdan 13",45.55903284,10.2214721,0,Z1
587,"Brescia, Oberdan 7",45.55855994,10.22430745,0,Z1
588,"Brescia, Riccobelli fr.35",45.55822753,10.23843057,0,Z1
589,"Brescia, Val Di Fiemme 21",45.55637474,10.23954449,0,Z1
590,"Brescia, Costalunga 21-23",45.55348855,10.23716956,0,Z1
591,"Brescia, Costalunga fr.14",45.55373574,10.23368062,0,Z1
593,"Brescia, Chiusure 4",45.54814776,10.18397453,0,Z1
594,"Brescia, Chiusure fr.23/c",45.55002242,10.18564304,0,Z1
595,"Brescia, Caduti Del Lavoro 24-26",45.55250339,10.18684813,0,Z1
596,"Brescia, Caduti Del Lavoro 70-72",45.55370757,10.19007987,0,Z1
597,"Brescia, Caduti Del Lavoro 114",45.55498455,10.19355798,0,Z1
598,"Brescia, Chiusure 234/b",45.55652073,10.19507994,0,Z1
599,"Brescia, Della Chiesa 26",45.55941597,10.19655497,0,Z1
6,"Bovezzo, Veneto 48",45.58725865,10.24237153,0,Z2
60,"Brescia, Lamarmora 92",45.52255788,10.20856001,0,Z1
600,"Brescia, Risorgimento 17-19",45.56232771,10.2039162,0,Z1
601,"Brescia, Oberdan 39",45.56049672,10.20997034,0,Z1
602,"Brescia, Gamba, Campo Calcio",45.55848834,10.2187832,0,Z1
603,"Brescia, Montebaldo 4",45.55601886,10.21850271,0,Z1
604,"Brescia, Altipiani d'Asiago 20",45.55593837,10.22216662,0,Z1
605,"Brescia, Zadei 53-55",45.55638006,10.22420828,0,Z1
607,"Brescia, S.Rocchino 95",45.55158561,10.22854453,0,Z1
608,"Brescia, S.Rocchino 43",45.54826889,10.22886128,0,Z1
609,"Brescia, S.Rocchino 9",45.5449522,10.22990862,0,Z1
61,"Brescia, Cipro 17",45.52430202,10.21072797,0,Z1
610,"Brescia, Turati fr.42, S.Camillo",45.5403327,10.23150033,0,Z1
611,"Brescia, S.Polo 20, Questura",45.52587162,10.24226441,0,Z1
612,"Brescia, S.Polo 42",45.52357163,10.24418666,0,Z1
614,"Brescia, S.Polo fr.69",45.52044663,10.24660059,0,Z1
615,"Brescia, S.Polo 108",45.5164244,10.24967563,0,Z1
616,"Brescia, S.Polo, Margherita d'Este",45.51472442,10.25051177,0,Z1
618,"Brescia, S.Zeno fr.93",45.52357708,10.21880307,0,Z1
619,"Brescia, Stazione 38",45.53340203,10.2121974,0,Z1
62,"Brescia, Cefalonia 56",45.52574156,10.21298602,0,Z1
620,"Castenedolo, Monte Pasubio fr.16",45.47006053,10.26315378,0,Z2
621,"Brescia, S.Zeno 93",45.52377153,10.2191253,0,Z1
623,"Brescia, S.Polo 207",45.51389943,10.25096455,0,Z1
624,"Brescia, S.Polo 167",45.5167633,10.24954228,0,Z1
625,"Brescia, S.Polo 69",45.52065497,10.24655336,0,Z1
626,"Brescia, Turati 44, S.Camillo",45.54087439,10.231592,0,Z1
627,"Brescia, S.Rocchino 22",45.54512165,10.2299697,0,Z1
628,"Brescia, S.Rocchino 52",45.54870203,10.22894153,0,Z1
629,"Brescia, Ospedale, Staufer",45.55529127,10.23050836,0,Z1
63,"Brescia, Malta fr.12",45.52691539,10.21547819,0,Z1
630,"Brescia, Zadei 50",45.55617452,10.22474442,0,Z1
631,"Brescia, Altipiani d'Asiago 11",45.55613838,10.22231384,0,Z1
632,"Brescia, Gamba 10/Montebaldo 4",45.5565133,10.21825825,0,Z1
633,"Brescia, Gamba, Campo Tennis",45.55859668,10.21892489,0,Z1
634,"Brescia, Oberdan 20/e",45.56046343,10.21340054,0,Z1
635,"Brescia, Oberdan 50",45.56070773,10.21073583,0,Z1
636,"Brescia, Risorgimento 8/b",45.56240215,10.20404119,0,Z1
637,"Brescia, Risorgimento 30",45.56325214,10.20142725,0,Z1
638,"Brescia, Della Chiesa 23",45.56003265,10.19669386,0,Z1
639,"Brescia, Chiusure 331",45.55710205,10.19521052,0,Z1
64,"Brescia, Solferino fr.67",45.53138365,10.22352966,0,Z1
640,"Brescia, Caduti Del Lavoro 159",45.55513814,10.19368828,0,Z1
641,"Brescia, Caduti Del Lavoro 67",45.55366589,10.189691,0,Z1
642,"Brescia, Caduti Del Lavoro 31",45.55280197,10.18732427,0,Z1
643,"Brescia, Chiusure 21/c",45.54983529,10.18532981,0,Z1
644,"Brescia, Chiusure 7",45.54866581,10.18430483,0,Z1
645,"Brescia, Fiumicello, Capolinea",45.54758254,10.19521896,0,Z1
646,"Brescia, Carducci 43, Scuole Romanino",45.54823784,10.19779596,0,Z1
647,"Botticino, Speri",45.53511106,10.30177561,0,Z2
648,"Brescia, Villa Glori 10",45.54468529,10.19339674,0,Z1
649,"Brescia, Villa Glori 34",45.54180194,10.19236064,0,Z1
65,Via XX Settembre 48,45.53336099,10.21916399,0,Z1
650,"Brescia, Lunga 12, Breda",45.53832971,10.19224132,0,Z1
651,"Brescia, Rose Di Sotto 111",45.53580215,10.19468856,0,Z1
652,"Brescia, Divisione Acqui 105",45.53686846,10.19625633,0,Z1
653,"Brescia, Divisione Acqui 27",45.53591403,10.20050055,0,Z1
654,"Brescia, Togni fr.40",45.53563532,10.20371388,0,Z1
655,"Brescia, Togni, Freccia Rossa",45.53380201,10.20784181,0,Z1
656,"Castenedolo, Monte Pasubio 16/a",45.47012443,10.26323988,0,Z2
657,"Brescia, Martiri Della Liberta' 35/a",45.53615471,10.21375284,0,Z1
658,"Brescia, Lechi 16, Porta Venezia",45.53543359,10.23244067,0,Z1
659,"Brescia, Cadorna 4-B",45.53193547,10.23382542,0,Z1
66,"Brescia, S.Benedetto 2",45.49952321,10.27793722,0,Z1
660,"Brescia, Duca Degli Abruzzi 2",45.52900215,10.23328929,0,Z1
661,"Brescia, Abruzzi 14, Liceo Copernico",45.52557992,10.23156153,0,Z1
662,"Brescia, Duca Degli Abruzzi fr.47",45.52304102,10.23001151,0,Z1
663,"Brescia, Duca Degli Abruzzi 40",45.52091047,10.22926926,0,Z1
664,"Brescia, Duca Degli Abruzzi 84",45.51877991,10.22854484,0,Z1
665,"Brescia, Duca Degli Abruzzi 92, Cimitero",45.51687939,10.22791212,0,Z1
666,"Brescia, Lippi 6",45.51389943,10.25345623,0,Z1
667,"Brescia, Tiepolo fr.2",45.52503554,10.24927003,0,Z1
670,"Brescia, Vannucci 21",45.51479111,10.25784517,0,Z1
671,"Brescia, Lippi",45.51448276,10.25517292,0,Z1
672,"Brescia, Duca Degli Abruzzi 167",45.51514934,10.22737542,0,Z1
673,"Brescia, Duca Degli Abruzzi, Cimitero",45.51702989,10.22805041,0,Z1
674,"Brescia, Duca Degli Abruzzi",45.51871879,10.22863652,0,Z1
675,"Brescia, Duca Degli Abruzzi fr.40",45.52102748,10.22940391,0,Z1
676,"Brescia, Duca Degli Abruzzi 25",45.52413546,10.23089208,0,Z1
677,"Brescia, Abruzzi 15, Liceo Copernico",45.52557714,10.23164487,0,Z1
678,"Brescia, Duca Degli Abruzzi 13",45.52797234,10.23286906,0,Z1
679,"Brescia, Vaiarini 1",45.53237464,10.23456948,0,Z1
68,"Brescia, Solferino 33",45.532565,10.2185648,0,Z1
680,"Brescia, XXV Aprile, Carceri",45.53257715,10.2301198,0,Z1
681,"Brescia, Togni 31, Freccia Rossa",45.53401034,10.20742789,0,Z1
683,"Castenedolo, Monte Pasubio 108",45.47776608,10.26040926,0,Z2
684,"Brescia, Divisione Acqui 76",45.53702051,10.1959111,0,Z1
685,"Brescia, Divisione Acqui 130",45.53763752,10.19296939,0,Z1
686,"Brescia, Lunga fr.2, Breda",45.53970469,10.19233849,0,Z1
687,"Brescia, Villa Glori 19, Circoscrizione",45.54203193,10.19246989,0,Z1
688,"Brescia, Villa Glori 5/a",45.54502697,10.19363561,0,Z1
690,"Brescia, Pusterla fr.67",45.54392426,10.22958975,0,Z1
691,"Brescia, Pusterla 24",45.544887,10.22594573,0,Z1
692,"Brescia, Panoramica 2",45.53961627,10.23252514,0,Z1
693,"Brescia, Panoramica 14",45.54072163,10.23443648,0,Z1
694,"Brescia, Panoramica 28",45.54210884,10.23322885,0,Z1
695,"Brescia, Panoramica 38",45.54191879,10.23459838,0,Z1
696,"Brescia, Panoramica 42, Tomba Del Cane",45.53798556,10.23836986,0,Z1
697,"Brescia, Panoramica 50",45.53931611,10.23832541,0,Z1
698,"Brescia, Panoramica 80",45.54109113,10.2374615,0,Z1
699,"Brescia, Panoramica 84",45.54078001,10.23799205,0,Z1
7,"Bovezzo, Dante 12",45.58561691,10.24054102,0,Z2
700,"Brescia, Panoramica 92",45.539113,10.23963558,0,Z1
7001,"Brescia, Prealpino Metro",45.58029347,10.22917483,0,Z1
7002,"Brescia, Casazza Metro",45.5759061,10.22997572,0,Z1
7003,"Brescia, Mompiano Metro",45.56763319,10.23612368,0,Z1
7004,"Brescia, Europa Metro",45.5629678,10.23471637,0,Z1
7005,"Brescia, Ospedale, Metro",45.555699,10.23307381,0,Z1
7006,"Brescia, Marconi Metro",45.55175834,10.22467461,0,Z1
7007,"Brescia, S.Faustino Metro",45.54486041,10.22006414,0,Z1
7008,"Brescia, Vittoria Metro",45.53865058,10.21833197,0,Z1
7009,"Brescia, Stazione, Metro",45.53224711,10.21429723,0,Z1
701,"Brescia, Panoramica 120",45.54136614,10.23859484,0,Z1
7010,"Brescia, Bresciadue Metro",45.52611462,10.21211956,0,Z1
7011,"Brescia, Lamarmora Metro",45.52119026,10.21332386,0,Z1
7012,"Brescia, Volta Metro",45.51775527,10.22559137,0,Z1
7013,"Brescia, Poliambulanza",45.51694433,10.23691641,0,Z1
7014,"Brescia, Parco Metro",45.51668069,10.24231584,0,Z1
7015,"Brescia, S.Polo Metro",45.51775016,10.25692758,0,Z1
7016,"Brescia, Sanpolino Metro",45.51618344,10.26643368,0,Z1
7018,"Brescia, S.Eufemia",45.51168918,10.27966971,0,Z1
7019,"Brescia, Sanpolino Metro",45.51640037,10.26659409,0,Z1
702,"Brescia, Panoramica 122",45.54283559,10.23813927,0,Z1
7020,"Brescia, S.Polo Metro",45.51795692,10.25691259,0,Z1
7021,"Brescia, Parco Metro",45.51694055,10.24230212,0,Z1
7022,"Brescia, Poliambulanza Metro",45.51721764,10.2369224,0,Z1
7023,"Brescia, Volta Metro",45.51798949,10.22559646,0,Z1
7024,"Brescia, Lamarmora Metro",45.52133478,10.21340741,0,Z1
7025,"Brescia, Bresciadue Metro",45.5261205,10.21232656,0,Z1
7026,"Brescia, Stazione, Metro",45.53217957,10.21457163,0,Z1
7027,"Brescia, Vittoria Metro",45.53855978,10.21851394,0,Z1
7028,"Brescia, S.Faustino Metro",45.54481831,10.22022418,0,Z1
7029,"Brescia, Marconi Metro",45.55168331,10.22489144,0,Z1
703,"Brescia, S.Gottardo 126, Medaglioni",45.54232925,10.23908078,0,Z1
7030,"Brescia, Ospedale, Metro",45.55554406,10.23320841,0,Z1
7031,"Brescia, Europa Metro",45.56295798,10.23487715,0,Z1
7032,"Brescia, Mompiano Metro",45.56762299,10.2363004,0,Z1
7033,"Brescia, Casazza Metro",45.57594185,10.23011808,0,Z1
704,"Brescia, S.Gottardo 4",45.5412115,10.24172043,0,Z1
705,"Brescia, S.Gottardo 12",45.54219751,10.24454495,0,Z1
706,"Brescia, S.Gottardo 26, Vedetta",45.54288981,10.24865761,0,Z1
707,"Brescia, S.Gottardo, Capolinea",45.54266353,10.25190327,0,Z1
708,"Brescia, S.Gottardo 9, Vedetta",45.54297131,10.24820741,0,Z1
709,"Brescia, S.Gottardo 11",45.54229679,10.24491711,0,Z1
71,"Brescia, S.Faustino 56",45.54256598,10.2198696,0,Z1
710,"Brescia, S.Gottardo 1",45.54100783,10.24123653,0,Z1
711,"Brescia, Panoramica 137, Medaglioni",45.54231894,10.23919483,0,Z1
712,"Brescia, Panoramica 115",45.54305097,10.23771568,0,Z1
713,"Brescia, Panoramica 107",45.54110839,10.23860357,0,Z1
714,"Brescia, Panoramica 103",45.53948556,10.23928375,0,Z1
715,"Brescia, Panoramica 61",45.54109391,10.23788371,0,Z1
716,"Brescia, Panoramica 55",45.54078279,10.2375754,0,Z1
717,"Brescia, Panoramica 11",45.54049045,10.23459913,0,Z1
718,"Brescia, Panoramica 1/a",45.53958184,10.23228598,0,Z1
719,"Brescia, Panoramica 19",45.54207192,10.23309693,0,Z1
720,"Brescia, Panoramica 23",45.54179111,10.23504482,0,Z1
721,"Brescia, Panoramica 35, Tomba Del Cane",45.53801055,10.23839487,0,Z1
722,"Brescia, Panoramica 49",45.53949279,10.23812262,0,Z1
723,"Brescia, Pusterla 45",45.54469105,10.22700579,0,Z1
724,"Brescia, Vittorio E.II 35",45.53443834,10.21710835,0,Z1
727,"Borgosatollo, Molino Vecchio 179",45.47778274,10.25389253,0,Z2
728,"Borgosatollo, Di Vittorio 49",45.47508548,10.24482857,0,Z2
729,"Botticino, Speri fr.79",45.53540035,10.30357501,0,Z2
73,"Brescia, Battisti 8, Porta Trento",45.54589859,10.22053045,0,Z1
730,"Brescia, San Zeno fr.141",45.51886873,10.21632807,0,Z1
731,"Brescia, Del Rione 48",45.49523534,10.20853108,0,Z1
732,"Brescia, San Zeno, Teatro Tenda",45.51454096,10.21533643,0,Z1
733,"Brescia, San Zeno 184, Colombere",45.50976873,10.21540588,0,Z1
735,"Brescia, San Zeno 268",45.50644095,10.2146281,0,Z1
736,"Brescia, San Zeno fr.7",45.50121316,10.21410591,0,Z1
737,"Brescia, Cascina Pontevica",45.49879648,10.21189756,0,Z1
738,"Brescia, Del Rione 6",45.49889924,10.20793367,0,Z1
739,"Brescia, Del Rione 30",45.49687147,10.20831144,0,Z1
74,"Brescia, Montesuello 6",45.54857852,10.22194415,0,Z1
740,"Brescia, Malta, Folzano Capolinea",45.49533534,10.2036614,0,Z1
741,"Brescia, Malta Folzano 41",45.49747978,10.20373084,0,Z1
742,"Brescia, S.Faustino 75",45.54371836,10.2196607,0,Z1
743,"Brescia, Cascina Pontevica 50",45.4994687,10.2067253,0,Z1
744,"Brescia, Malta fr.38",45.49957978,10.2047336,0,Z1
745,"Brescia, Cascina Pontevica",45.49875759,10.21151423,0,Z1
746,"S.Z.Naviglio, San Zeno 7-9",45.50118259,10.21420037,0,Z1
747,"Brescia, San Zeno fr.268",45.50616595,10.21472534,0,Z1
749,"Brescia, San Zeno fr.192, Colombere",45.50992707,10.21554756,0,Z1
75,"Brescia, Marconi 2/c",45.55061949,10.22353609,0,Z1
750,"Brescia, San Zeno",45.51452985,10.21563642,0,Z1
751,"Brescia, Poliambulanza, Capolinea",45.52022715,10.2348477,0,Z1
752,"Brescia, San Zeno fr.152",45.51832153,10.21612251,0,Z1
756,"Brescia, Violino, Capolinea",45.54292366,10.17070651,0,Z1
757,"Brescia, Violino Di Sopra 39-41",45.54462752,10.17220219,0,Z1
758,"Brescia, Terza 5, Villaggio Violino",45.54408239,10.17521299,0,Z1
759,"Brescia, Re Rotari 19",45.54616015,10.16925451,0,Z1
76,"Brescia, Marconi 14",45.55209889,10.22482628,0,Z1
760,"Brescia, Del Franzone fr.1",45.55073805,10.1799047,0,Z1
761,"Brescia, Del Franzone 54, Clinica S.Anna",45.5536464,10.18156302,0,Z1
762,"Brescia, Maestri del Lavoro 11",45.55495927,10.18390535,0,Z1
763,"Brescia, Farfengo 67",45.55517146,10.18535371,0,Z1
764,"Brescia, Farfengo 17",45.55450234,10.1878178,0,Z1
77,"Brescia, Marconi 38/Corvi",45.554911,10.22693401,0,Z1
773,"Brescia, Farfengo 16",45.55483533,10.18701313,0,Z1
774,"Brescia, Maestri del Lavoro 2",45.55552143,10.18363806,0,Z1
775,"Brescia, Del Franzone 31, Clinica S.Anna",45.5532791,10.18133673,0,Z1
776,"Brescia, Del Franzone 1-3",45.5508825,10.17990192,0,Z1
777,"Brescia, Albertano Da Brescia 5",45.54779633,10.1794686,0,Z1
778,"Brescia, Trisia",45.53957957,10.17000188,0,Z1
779,"Brescia, Violino Di Sotto 96",45.54090181,10.17261023,0,Z1
78,"Brescia, Roncalli 6, Ospedale satellite",45.55768571,10.22794161,0,Z1
780,"Brescia, Re Rotari 61",45.54291266,10.1675603,0,Z1
783,"Brescia, Pusterla 23",45.54524102,10.22360572,0,Z1
784,"Brescia, Vannucci fr.31",45.51463277,10.25762016,0,Z1
79,"Brescia, Triumplina 30",45.56131832,10.22837772,0,Z1
793,"Brescia, Giorgione",45.51335497,10.24902842,0,Z1
794,"Botticino, Longhetta, Scuole",45.53177519,10.30694272,0,Z2
795,"Botticino, Mazzini fr.139",45.52884645,10.30479212,0,Z2
797,"Brescia, Val Venosta 15",45.55500525,10.23811954,0,Z1
798,"Brescia, S.Polo 63",45.52228551,10.24531445,0,Z1
799,"Brescia, Masaccio fr.27",45.52346889,10.2526673,0,Z1
8,"Bovezzo, Dante 50",45.58645854,10.23699098,0,Z2
80,"Brescia, Triumplina 70, Ca' Noa",45.56355737,10.22864508,0,Z1
800,"Botticino, Molini 75",45.52824021,10.30723388,0,Z2
8001,"Desenzano d.Garda, U.d'Italia/Dei Mille",45.43722525,10.60332364,0,ZDE
8002,"Desenzano d.Garda, Unita'd'Italia 114",45.44065513,10.59880017,0,ZDE
8003,"Desenzano d.Garda, Unita' Italia/Francia",45.43861372,10.59995236,0,ZDE
8004,"Desenzano d.Garda, Colli Storici, Morone",45.44437641,10.59537865,0,ZDE
8005,"Desenzano d.Garda, C.Storici/D.Vite",45.45077251,10.58776662,0,ZDE
8006,"Desenzano d.Garda, Colli Storici, Morone",45.45306311,10.58460486,0,ZDE
8007,"Desenzano d.Garda, Cassio Bruto",45.45940401,10.58787621,0,ZDE
8008,"Desenzano d.Garda, SS11/Colli Storici",45.46034961,10.58182664,0,ZDE
8009,"Desenzano d.Garda, A.M.Di Francia",45.45786672,10.57636828,0,ZDE
801,"Brescia, Verrocchio 184",45.5217245,10.25693679,0,Z1
8010,"Desenzano d.Garda, Ugo Foscolo, Scuola",45.45610166,10.57179182,0,ZDE
8011,"Desenzano d.Garda, Foscolo, Scuole",45.45599572,10.56744967,0,ZDE
8012,"Desenzano d.Garda, Dugazze 85/San Zeno",45.45527557,10.56154012,0,ZDE
8013,"Desenzano d.Garda, Dugazze/S.Zeno",45.45509328,10.56177166,0,ZDE
8014,"Desenzano d.Garda, Michelangelo/Allende",45.46004693,10.55455866,0,ZDE
8015,"Desenzano d.Garda, Michelangelo, Scuola",45.46118548,10.54860382,0,ZDE
8016,"Desenzano d.Garda, Dugazze 13/Tignalga",45.45904535,10.5590125,0,ZDE
8017,"Desenzano d.Garda, G.Marconi, Distr.IP",45.46701789,10.54131049,0,ZDE
8018,"Desenzano d.Garda, Masaccio, fr.Staz.",45.46264616,10.53742752,0,ZDE
8019,"Desenzano d.Garda, Cavour 9",45.46656191,10.53740926,0,ZDE
802,"Botticino, Molini",45.53316158,10.31188623,0,Z2
8020,"Desenzano d.Garda, G.Marconi/Garibaldi",45.46926612,10.53411031,0,ZDE
8021,"Desenzano d.Garda, Marconi, ENEL",45.46970122,10.53052893,0,ZDE
8022,"Desenzano d.Garda, Andreis",45.46885419,10.52588946,0,ZDE
8023,"Desenzano d.Garda, Ospedale",45.47070569,10.52134304,0,ZDE
8024,"Desenzano d.Garda, Ospedale, Desenzano",45.47173569,10.51939149,0,ZDE
8025,"Desenzano d.Garda, Ospedale",45.47069409,10.52093779,0,ZDE
8026,"Desenzano d.Garda, Ospedale H.House",45.46914241,10.52047634,0,ZDE
8027,"Desenzano d.Garda, Andreis 74",45.46893204,10.52587277,0,ZDE
8028,"Desenzano d.Garda, Marconi",45.46948444,10.52991381,0,ZDE
8029,"Desenzano d.Garda, G.Marconi/Mezzocolle",45.46932678,10.53361464,0,ZDE
803,"Brescia, Verrocchio 201",45.52065225,10.25778125,0,Z1
8030,"Desenzano d.Garda, Cavour/Brescia",45.46714318,10.5376921,0,ZDE
8031,"Desenzano d.Garda, Marconi/Pasubio",45.4671691,10.53977634,0,ZDE
8032,"Desenzano d.Garda, Rambotti",45.46423653,10.54763367,0,ZDE
8033,"Desenzano d.Garda, Rambotti/Pace",45.46352733,10.549485,0,ZDE
8034,"Desenzano d.Garda, Rambotti/Allende",45.4622621,10.55283999,0,ZDE
8035,"Desenzano d.Garda, Allende 18, Piscina",45.46017161,10.55366514,0,ZDE
8036,"Desenzano d.Garda, Pratomaggiore, Poste",45.45571886,10.56532211,0,ZDE
8037,"Desenzano d.Garda, Dugazze/G.Da Salo'",45.45873156,10.55871725,0,ZDE
8038,"Desenzano d.Garda, Giovanni XXIII, Scuole",45.4559273,10.56742217,0,ZDE
8039,"Desenzano d.Garda, Foscolo fr.Asilo",45.4560477,10.57239968,0,ZDE
804,"Brescia, Verrocchio 35",45.52207448,10.25682011,0,Z1
8040,"Desenzano d.Garda, Annibale Di Francia",45.45792766,10.57649638,0,ZDE
8041,"Desenzano d.Garda, Agello 47",45.46032171,10.58241185,0,ZDE
8042,"Desenzano d.Garda, Cassio 18",45.45945048,10.58809495,0,ZDE
8043,"Desenzano d.Garda, Colli Storici, Tassere",45.45327451,10.58461398,0,ZDE
8044,"Desenzano d.Garda, C.Storici/D.Vite",45.45077365,10.58807197,0,ZDE
8045,"Desenzano d.Garda, Colli Storici, Morone",45.44360325,10.59653227,0,ZDE
8046,"Desenzano d.Garda, Unita' d'Italia 72",45.43854102,10.60032269,0,ZDE
8047,"Desenzano d.Garda, U.d'Italia/Solferino",45.44061353,10.59871929,0,ZDE
8048,"Desenzano d.Garda, Gramsci 37/Murachette",45.47153668,10.5332716,0,ZDE
8049,"Desenzano d.Garda, Gramsci, Casa Riposo",45.47337237,10.53532199,0,ZDE
805,"Brescia, Masaccio 29",45.52390224,10.25360063,0,Z1
8050,"Desenzano d.Garda, Battisti/IV Novembre",45.47387307,10.53935428,0,ZDE
8051,"Desenzano d.Garda, Cappelletti fr.22",45.47192087,10.54047167,0,ZDE
8052,"Desenzano d.Garda, Anelli 4, Porto",45.46920269,10.54207136,0,ZDE
8053,"Desenzano d.Garda, Michelangelo/Dugazze",45.45956858,10.56011012,0,ZDE
8054,"Desenzano d.Garda, SS11/Villa Brunati",45.46085034,10.56735682,0,ZDE
8055,"Desenzano d.Garda, S.Zeno, Rivoltella",45.45783607,10.56518086,0,ZDE
8056,"Desenzano d.Garda, Michelangelo Dugazze",45.45963887,10.56015981,0,ZDE
8057,"Desenzano d.Garda, Michelangelo/Celesti",45.46354098,10.54415775,0,ZDE
8058,"Desenzano d.Garda, Zadei fr.35",45.4620983,10.54034338,0,ZDE
8059,"Desenzano d.Garda, Masaccio, Stazione FS",45.46243077,10.53771426,0,ZDE
806,"Brescia, Triumplina fr.70, Ca' Noa",45.56383581,10.22854146,0,Z1
8060,"Desenzano d.Garda, Giotto/L.Da Vinci",45.4620424,10.54381624,0,ZDE
8061,"Desenzano d.Garda, Giotto, Piscine",45.45954518,10.55306597,0,ZDE
8062,"Desenzano d.Garda, Michelangelo, Ist.Alb",45.46236211,10.54646474,0,ZDE
8063,"Desenzano d.Garda, Sirmione 43",45.46461948,10.54727159,0,ZDE
8064,"Desenzano d.Garda, Tommaso dal Molin",45.46626752,10.54820733,0,ZDE
8065,"Desenzano d.Garda, Anelli, Porto",45.46927476,10.54215717,0,ZDE
8066,"Desenzano d.Garda, C.Battisti, Lato Lago",45.4718655,10.54060788,0,ZDE
8067,"Desenzano d.Garda, C.Battisti, Lato Lago",45.47376603,10.53951144,0,ZDE
8068,"Desenzano d.Garda, Battisti/Balneare",45.47757512,10.5383901,0,ZDE
807,"Brescia, Gambara, Stazione FS/Metro",45.5324576,10.21425575,0,Z1
8070,"Desenzano d.Garda, Innocenta",45.45052618,10.56806206,0,ZDE
8071,"Desenzano d.Garda, Vighenzi",45.47744518,10.53332791,0,ZDE
8072,"Desenzano d.Garda, S.Benedetto fr.32",45.4753577,10.53309647,0,ZDE
8075,"Desenzano d.Garda, Cimitero",45.47555858,10.52835579,0,ZDE
8077,"Desenzano d.Garda, Gramsci/S.Benedetto",45.4731078,10.53491501,0,ZDE
8078,"Desenzano d.Garda, Gramsci 13/Murachette",45.4716779,10.53329787,0,ZDE
8079,"Desenzano d.Garda, Mezzocolle/Curtatone",45.46873015,10.53313472,0,ZDE
808,"Botticino, Marconi fr.3",45.53539963,10.31319492,0,Z2
8080,"Desenzano d.Garda, Mezzocolle fr.Trento",45.46712546,10.53192924,0,ZDE
8081,"Desenzano d.Garda, Mezzocolle/Valeggio",45.46456096,10.53057368,0,ZDE
8082,"Desenzano d.Garda, Vicina, Parcheggio",45.4634293,10.53139528,0,ZDE
8083,"Desenzano d.Garda, Delle Mimose, 20",45.45429697,10.53144219,0,ZDE
8084,"Desenzano d.Garda, Degli Oleandri",45.45286564,10.53413549,0,ZDE
8085,"Desenzano d.Garda, Grezze",45.45569934,10.53325472,0,ZDE
8086,"Desenzano d.Garda, El Alamein 4",45.45897231,10.53150003,0,ZDE
8087,"Desenzano d.Garda, M.Suello/A.Moro",45.45985346,10.53081001,0,ZDE
809,"Brescia, Bevilacqua 27",45.54668255,10.19808569,0,Z1
8090,"Desenzano d.Garda, Mattei",45.45044164,10.56803623,0,ZDE
8091,"Desenzano d.Garda, C.dei Lager",45.46429664,10.52779395,0,ZDE
8092,"Desenzano d.Garda, Montecorno/Bevilacqua",45.47057941,10.52834818,0,ZDE
8093,"Desenzano d.Garda, Rimembranze 80",45.4717312,10.53105643,0,ZDE
8094,"Desenzano d.Garda, Venezia fr.104",45.45172473,10.57016277,0,ZDE
8095,"Desenzano d.Garda, Venezia 104",45.45157124,10.56999865,0,ZDE
8096,"Desenzano d.Garda, Pratomaggiore fr.255",45.4534193,10.56527303,0,ZDE
8097,"Desenzano d.Garda, Pratomaggiore 255",45.45356021,10.56528707,0,ZDE
8098,"Desenzano d.Garda, Alfieri/Pratomaggiore",45.45600114,10.56521249,0,ZDE
8099,"Desenzano d.Garda, Rambrotti 4",45.46631514,10.5456886,0,ZDE
81,"Brescia, Triumplina 90",45.56656271,10.2298725,0,Z1
810,"Brescia, Nicolini 6",45.54646031,10.19583566,0,Z1
811,"Brescia, Q.re I Maggio 14",45.53635752,10.20075545,0,Z1
812,"Borgosatollo, Facchi fr.49",45.4730688,10.23922018,0,Z2
813,"Borgosatollo, Rovetta fr.48",45.47378267,10.23677294,0,Z2
814,"Brescia, Trisia 56",45.54031947,10.16595336,0,Z1
815,"Brescia, A.Cantore 9, ITIS",45.55599938,10.2159221,0,Z1
816,"Botticino, Marconi 140",45.5381257,10.31703585,0,Z2
817,"Brescia, Europa, Politecnico",45.56623878,10.23720534,0,Z1
818,"Brescia, Zambaldi fr.49",45.52557494,10.29201206,0,Z1
819,"Brescia, Zambaldi 44",45.52429438,10.29070928,0,Z1
82,"Brescia, Triumplina 132",45.56887665,10.23110437,0,Z1
820,"Brescia, Goldoni 13",45.52196931,10.28715372,0,Z1
821,"Botticino, Marconi fr.51",45.54114155,10.32026831,0,Z2
822,"Botticino, Capolinea",45.54272059,10.32258022,0,Z2
824,"Botticino, Marconi 84",45.54147825,10.32049277,0,Z2
825,"Botticino, Marconi",45.53950874,10.31822888,0,Z2
826,"Botticino, Marconi 3",45.53532529,10.31288718,0,Z2
827,"Botticino, Molini 10",45.53337249,10.31187886,0,Z2
828,"Botticino, Molini fr.67",45.52885018,10.30776217,0,Z2
829,"Botticino, Mazzini 143",45.52912515,10.30465658,0,Z2
83,"Brescia, Triumplina fr.101",45.57231378,10.23166072,0,Z1
830,"Botticino, Longhetta, Scuole",45.53195575,10.30730938,0,Z2
831,"Botticino, Speri, Casa Di Riposo",45.53563631,10.30465378,0,Z2
832,"Botticino, Speri 15",45.53491143,10.30085744,0,Z2
833,"Botticino, Cavour 42",45.53359454,10.29776484,0,Z2
834,"Botticino, Cavour 84",45.53174171,10.29576761,0,Z2
835,"Collebeato, Capolinea",45.58166909,10.20754927,0,Z2
836,"Collebeato, Togliatti",45.58065801,10.21105763,0,Z2
837,"Collebeato, Verdi 4",45.58111917,10.2132993,0,Z2
838,"Collebeato, De Gasperi",45.57921082,10.21343268,0,Z2
839,"Collebeato, Roma, Cimitero",45.57907605,10.21567136,0,Z2
84,"Brescia, Triumplina 194",45.57489715,10.23091345,0,Z1
840,"Collebeato, Quaglieni",45.58222757,10.21558819,0,Z2
841,"Collebeato, Quaglieni 1",45.58429704,10.21617979,0,Z2
848,"Collebeato, S.Francesco 51",45.58502212,10.22072147,0,Z2
85,"Brescia, Tamburini 28",45.57794164,10.23082726,0,Z1
851,"Collebeato, Moro fr.6",45.58698318,10.21554363,0,Z2
852,"Collebeato, Borghini fr.2",45.58416088,10.21376033,0,Z2
853,"Collebeato, Martinengo 14",45.58437197,10.21229367,0,Z2
854,"Collebeato, Fermi fr.5",45.58307194,10.21048815,0,Z2
856,"Brescia, Mario",45.53669658,10.23096979,0,Z1
857,"Brescia, Castellini, Capolinea",45.53411325,10.23596151,0,Z1
858,"Brescia, Brusato 22",45.53839656,10.22972811,0,Z1
86,"Brescia, Tamburini 2",45.58042504,10.23208276,0,Z1
861,"Brescia, San Zeno",45.51661596,10.21510308,0,Z1
862,"Brescia, San Zeno",45.5168604,10.21537531,0,Z1
863,"Brescia, Badia 113",45.54857408,10.16961281,0,Z1
864,"Brescia, Badia 61",45.54790465,10.17454071,0,Z1
865,"Brescia, Badia 21",45.54726853,10.17676855,0,Z1
866,"Brescia, Castiglioni 21",45.54882354,10.17887414,0,Z1
867,"Brescia, Badia 30",45.54733798,10.17657965,0,Z1
868,"Brescia, Badia 60",45.54819077,10.17345179,0,Z1
869,"Brescia, Badia fr.113",45.54864074,10.16889891,0,Z1
87,"Brescia, Prima fr.56, Vill.Prealpino",45.58232783,10.23206605,0,Z1
870,"Brescia, Re Rotari fr.19",45.54634929,10.16926217,0,Z1
871,"Brescia, Re Rotari 76",45.54313791,10.16753784,0,Z1
872,"Brescia, Ventunesima fr.6, Vill.Violino",45.54193451,10.16955877,0,Z1
873,"Botticino, Molini",45.53105026,10.30988923,0,Z2
874,"Botticino, Molini fr.38",45.53101097,10.31005413,0,Z2
875,"Borgosatollo, Caduti Del Lavoro",45.47731323,10.23636737,0,Z2
876,"Borgosatollo, Molino Vecchio 14",45.47639363,10.24123704,0,Z2
877,"Borgosatollo, Matteotti fr.36",45.47955212,10.23807847,0,Z2
878,"Brescia, Cefalonia 10",45.52722432,10.20665967,0,Z1
879,"Castenedolo, Monte Pasubio fr.108",45.47729387,10.26043148,0,Z2
88,"Brescia, Del Brolo 20, Vill.Prealpino",45.58285837,10.23083826,0,Z1
882,"Brescia, Baresani",45.49416869,10.21020314,0,Z1
883,"Brescia, San Zeno",45.4920937,10.20989202,0,Z1
884,"Brescia, Malta 73",45.49211868,10.20546977,0,Z1
885,"Brescia, Malta 49",45.49442146,10.20595587,0,Z1
886,"Botticino, Speri 135",45.53499188,10.30633712,0,Z2
887,"Brescia, S.Gottardo fr.6, Capolinea",45.54254814,10.25191605,0,Z1
888,"Brescia, Caionvico, Capolinea",45.52357213,10.28989816,0,Z1
89,"Brescia, Del Brolo 54",45.58518066,10.23176043,0,Z1
893,"Botticino, Mazzini",45.53304875,10.30119088,0,Z2
894,"Botticino, Carini 82",45.53852243,10.30207041,0,Z2
895,"Botticino, Panoramica 82",45.5399808,10.30346486,0,Z2
896,"Botticino, Panoramica fr.45",45.54312245,10.30005092,0,Z2
897,"Botticino, Panoramica fr.51",45.54651137,10.29891478,0,Z2
898,"Botticino, Panoramica fr.65",45.55075588,10.29841884,0,Z2
899,"Botticino, Panoramica fr.81",45.55366712,10.30426463,0,Z2
9,"Brescia, Vill.Prealpino, Capolinea",45.58665573,10.23496595,0,Z1
90,"Brescia, Del Brolo 80, Vill.Prealpino",45.58715293,10.23242148,0,Z1
900,"Botticino, S.Gallo fr.5",45.55617827,10.30500623,0,Z2
901,"Botticino, S.Gallo fr.34",45.56106173,10.30723669,0,Z2
902,"Botticino, S.Gallo fr.106",45.56376736,10.3084394,0,Z2
903,"Botticino, S.Gallo fr.109",45.56830355,10.30965042,0,Z2
904,"Botticino, S.Gallo fr.119",45.56992796,10.30984955,0,Z2
905,"Botticino, S.Gallo 168",45.57156931,10.31490129,0,Z2
906,"Botticino, S.Gallo fr.163",45.5722121,10.31999207,0,Z2
907,"Serle, Castello fr.100",45.57340394,10.33457829,0,Z2
908,"Serle, Castello fr.90",45.57488163,10.33661827,0,Z2
909,"Serle, Castello",45.57527906,10.34120055,0,Z2
91,"Brescia, Canossi",45.58734186,10.23537983,0,Z2
910,"Serle, Castello fr.42",45.57520955,10.33570604,0,Z2
911,"Serle, Castello 100",45.5733345,10.33458941,0,Z2
912,"Botticino, S.Gallo 165",45.57459275,10.32525875,0,Z2
913,"Botticino, S.Gallo 143",45.57169829,10.31406551,0,Z2
914,"Botticino, S.Gallo 119",45.57033972,10.31033094,0,Z2
915,"Botticino, S.Gallo fr.68",45.56607019,10.30915605,0,Z2
916,"Botticino, S.Gallo 77",45.56393403,10.30851719,0,Z2
917,"Botticino, S.Gallo fr.38",45.56153118,10.30741447,0,Z2
918,"Botticino, S.Gallo 5",45.55608104,10.30486182,0,Z2
919,"Botticino, Panoramica 81",45.55405602,10.30406739,0,Z2
92,"Bovezzo, Canossi 5",45.5870808,10.23920764,0,Z2
920,"Botticino, Panoramica 67",45.55098645,10.29853687,0,Z2
921,"Botticino, Panoramica 47/e",45.54601413,10.29885089,0,Z2
922,"Botticino, Panoramica 45",45.54318079,10.29999257,0,Z2
923,"Botticino, IV Novembre",45.53998358,10.30340096,0,Z2
924,"Botticino, Carini fr.82",45.53867902,10.30206367,0,Z2
925,"Botticino, Mazzini 55/a",45.53274737,10.30196209,0,Z2
926,"Botticino, S.Gallo fr.165",45.57453088,10.32531597,0,Z2
927,"Botticino, S.Gallo 163",45.57225098,10.32006985,0,Z2
93,"Bovezzo, Veneto 31",45.58773367,10.24256875,0,Z2
930,"Brescia, Bramante 1",45.52516891,10.25034503,0,Z1
932,"Brescia, Branze 43, Lato Sud",45.56379908,10.23174641,0,Z1
933,"Brescia, Branze 38, Lato Nord",45.56411362,10.23102204,0,Z1
934,"Brescia, Lonati, Lato Sud",45.52586334,10.25070615,0,Z1
935,"Brescia, Lonati, Lato Nord",45.52602167,10.25050892,0,Z1
936,"Brescia, Fossa Bagni, Metrobus",45.54510765,10.22068624,0,Z1
937,"Brescia, Fossa Bagni, Galleria",45.54417438,10.22423284,0,Z1
938,"Borgosatollo, Molino Vecchio 118",45.4768361,10.24565443,0,Z2
939,"Brescia, Prima 140, Vill.Badia",45.54996291,10.15650418,0,Z1
940,"Brescia, Ottava 44, Vill.Badia",45.55250181,10.15825973,0,Z1
941,"Brescia, Ottava 92, Vill.Badia",45.55409908,10.1600792,0,Z1
942,"Brescia, Ottava fr.48, Vill.Badia",45.55256015,10.15824862,0,Z1
944,"Brescia, Venturi fr.117, Boninsegna",45.49694064,10.16793323,0,Z1
945,"Flero, Manzoni 63",45.49603787,10.16636377,0,Z1
948,"Flero, Quinzano fr.18",45.49584616,10.16229983,0,Z1
95,"Bovezzo, Veneto 21",45.59053371,10.24317147,0,Z2
953,"Brescia, Togni 42",45.53577976,10.20352221,0,Z1
955,"Brescia, Crocifissa Di Rosa 74",45.55167983,10.22767464,0,Z1
96,"Brescia, Gramsci 14",45.53589119,10.2186359,0,Z1
99,"Brescia, Cremona 44",45.52777434,10.22358644,0,Z1
